time,.header.seq,.header.stamp.secs,.header.stamp.nsecs,.header.frame_id,.fX.data,.fY.data,.fZ.data,.mX.data,.mY.data,.mZ.data,.polaris.position.x,.polaris.position.y,.polaris.position.z,.polaris.orientation.x,.polaris.orientation.y,.polaris.orientation.z,.polaris.orientation.w,.polaristool2.position.x,.polaristool2.position.y,.polaristool2.position.z,.polaristool2.orientation.x,.polaristool2.orientation.y,.polaristool2.orientation.z,.polaristool2.orientation.w
2024/02/23/10:42:50.342452,1589,1708684970,340804208,,2.9700727462768555,-1.6615235805511475,0.38706332445144653,18.185466766357422,40.978450775146484,-54.443992614746094,135.3095703125,-90.51128387451172,-2576.56982421875,-0.0033399451058357954,-0.6951585412025452,-0.06158186495304108,0.7162060737609863,47.93270492553711,78.18539428710938,-2572.235107421875,0.6638571619987488,0.06652184575796127,0.7448703646659851,0.006052894983440638
2024/02/23/10:42:50.390878,1590,1708684970,390154074,,2.9847404956817627,-1.6278470754623413,0.3217501640319824,20.74514389038086,38.82680130004883,-55.2140007019043,135.31643676757812,-90.5117416381836,-2576.59716796875,-0.004661068320274353,-0.6950228810310364,-0.06022019684314728,0.7164461016654968,47.954105377197266,77.97087860107422,-2572.369140625,0.6624999046325684,0.06784791499376297,0.7459582090377808,0.006075137760490179
2024/02/23/10:42:50.442094,1591,1708684970,441237773,,3.016322612762451,-1.639924168586731,0.33123576641082764,22.722660064697266,36.6993408203125,-56.577823638916016,135.32374572753906,-90.50126647949219,-2576.501953125,-0.004757722839713097,-0.6951905488967896,-0.06010839343070984,0.7162922024726868,47.961795806884766,77.90508270263672,-2572.56005859375,0.6621261239051819,0.06806143373250961,0.7462722063064575,0.005871030036360025
2024/02/23/10:42:50.491795,1592,1708684970,490949610,,3.0167007446289062,-1.645140290260315,0.35734909772872925,22.338987350463867,37.20241928100586,-57.382286071777344,135.31329345703125,-90.51483917236328,-2576.488037109375,-0.005156553350389004,-0.6952584385871887,-0.05976598337292671,0.7162521481513977,47.9669189453125,77.85081481933594,-2572.5400390625,0.6618284583091736,0.06783658266067505,0.7465609908103943,0.005287711042910814
2024/02/23/10:42:50.540998,1593,1708684970,540407837,,3.015425682067871,-1.6165903806686401,0.3453024625778198,23.823394775390625,36.998268127441406,-58.128570556640625,135.31292724609375,-90.50980377197266,-2576.621337890625,-0.0039510829374194145,-0.6948269009590149,-0.060990918427705765,0.7165752649307251,47.93771743774414,77.92527770996094,-2572.56494140625,0.6626922488212585,0.0665147453546524,0.745919942855835,0.004272765014320612
2024/02/23/10:42:50.590810,1594,1708684970,590062517,,3.02986216545105,-1.6596156358718872,0.5359376072883606,24.61094856262207,44.42291259765625,-60.99688720703125,135.3125762939453,-90.517333984375,-2576.4658203125,-0.00445499736815691,-0.6954017281532288,-0.06039319187402725,0.7160651683807373,47.99124526977539,77.90240478515625,-2572.7177734375,0.6625314354896545,0.0632135197520256,0.7463606595993042,0.0013636484509333968
2024/02/23/10:42:50.641773,1595,1708684970,641054506,,2.9027438163757324,-1.6416178941726685,0.6688382625579834,16.865020751953125,56.63788986206055,-61.91944885253906,135.31809997558594,-90.51268005371094,-2576.5224609375,-0.004686285275965929,-0.6951912641525269,-0.06021476909518242,0.7162829637527466,47.93437957763672,78.7779541015625,-2572.48046875,0.6636796593666077,0.05903812125325203,0.7456803321838379,0.0021527321077883244
2024/02/23/10:42:50.690342,1596,1708684970,689930297,,2.8940281867980957,-1.5199222564697266,0.43145036697387695,23.3944091796875,54.033836364746094,-59.70038604736328,135.32241821289062,-90.51348876953125,-2576.6484375,-0.004684899467974901,-0.6949940919876099,-0.060197822749614716,0.7164757251739502,47.948394775390625,78.25135803222656,-2572.537109375,-0.6634628772735596,-0.05986620858311653,-0.745810329914093,3.26919907820411e-05
2024/02/23/10:42:50.741621,1597,1708684970,740930167,,2.9456124305725098,-1.6305302381515503,0.5247057676315308,24.371694564819336,49.95820999145508,-60.621009826660156,135.31362915039062,-90.51032257080078,-2576.538330078125,-0.003879047464579344,-0.6952211856842041,-0.0609988234937191,0.7161924839019775,47.94012451171875,78.37225341796875,-2572.6748046875,0.6627926230430603,0.061078570783138275,0.7463057041168213,0.0017720600590109825
2024/02/23/10:42:50.790555,1598,1708684970,790099132,,2.929497718811035,-1.586854338645935,0.39999842643737793,27.01959800720215,47.71907043457031,-59.57604217529297,135.3154296875,-90.51102447509766,-2576.572998046875,-0.0036845109425485134,-0.6950607895851135,-0.061213184148073196,0.716330885887146,47.95652770996094,78.03849029541016,-2572.757568359375,-0.6626793146133423,-0.06107058376073837,-0.746408998966217,0.0002617204445414245
2024/02/23/10:42:50.841499,1599,1708684970,840987604,,2.989596366882324,-1.5592836141586304,0.25421881675720215,34.76742935180664,38.967132568359375,-59.26664733886719,135.3046875,-90.5174560546875,-2576.584228515625,-0.00432580104097724,-0.6947649121284485,-0.06068919226527214,0.7166587710380554,47.914459228515625,78.15129852294922,-2572.880126953125,0.6610122323036194,0.06273923069238663,0.7477442026138306,0.0022756780963391066
2024/02/23/10:42:50.891201,1600,1708684970,890548239,,3.0083422660827637,-1.615315556526184,0.39818084239959717,32.55900573730469,39.14350891113281,-59.80632781982422,135.31813049316406,-90.5150375366211,-2576.53564453125,-0.005098175723105669,-0.6950609683990479,-0.05982884019613266,0.7164389491081238,47.911598205566406,78.28775787353516,-2573.10791015625,0.6606779098510742,0.06136760488152504,0.7481551170349121,0.001626162906177342
2024/02/23/10:42:50.941608,1601,1708684970,940974492,,2.92228627204895,-1.6062363386154175,0.5225111246109009,26.134981155395508,44.678794860839844,-61.478729248046875,135.31048583984375,-90.5091552734375,-2576.541748046875,-0.003290088614448905,-0.6951816082000732,-0.06157858669757843,0.7161841988563538,47.89790725708008,78.5925521850586,-2573.277099609375,0.6605466604232788,0.06153020262718201,0.7482506632804871,0.0036130181979388
2024/02/23/10:42:50.991091,1602,1708684970,990534587,,2.8707401752471924,-1.539520263671875,0.49733859300613403,25.759475708007812,45.790191650390625,-62.202152252197266,135.30596923828125,-90.52074432373047,-2576.7109375,-0.00501144677400589,-0.6946641802787781,-0.05990341305732727,0.71681809425354,47.87577819824219,78.66675567626953,-2573.341552734375,0.6612969636917114,0.060676995664834976,0.7476598024368286,0.0030676228925585747
2024/02/23/10:42:51.041486,1603,1708684971,40930894,,2.8905560970306396,-1.5436739921569824,0.569179892539978,25.794822692871094,46.994972229003906,-62.72624969482422,135.30914306640625,-90.51184844970703,-2576.537841796875,-0.004000874236226082,-0.6952199935913086,-0.06092001497745514,0.7161995768547058,47.88924789428711,78.7869644165039,-2573.6064453125,0.6601763963699341,0.05917133390903473,0.7487722635269165,0.0024588373489677906
2024/02/23/10:42:51.091057,1604,1708684971,90532918,,2.843759059906006,-1.5012850761413574,0.5275990962982178,25.11053466796875,49.72972869873047,-61.11479568481445,135.31387329101562,-90.50724792480469,-2576.53759765625,-0.004804709460586309,-0.6952397227287292,-0.06004348397254944,0.7162495255470276,47.834388732910156,79.29991149902344,-2573.54736328125,0.6607630252838135,0.05677293986082077,0.7484368085861206,0.0033738871570676565
2024/02/23/10:42:51.141540,1605,1708684971,140845277,,2.9068784713745117,-1.5207688808441162,0.4838551878929138,30.57556915283203,47.516258239746094,-59.22074890136719,135.32440185546875,-90.52159881591797,-2576.683837890625,-0.0042489259503781796,-0.6945984959602356,-0.06074681505560875,0.716815710067749,47.84873962402344,79.08032989501953,-2573.37841796875,0.6609066128730774,0.055969662964344025,0.7483772039413452,0.0012065101182088256
2024/02/23/10:42:51.191329,1606,1708684971,190513376,,2.924192428588867,-1.570217490196228,0.5980310440063477,27.670291900634766,49.662330627441406,-58.77559280395508,135.32493591308594,-90.5075454711914,-2576.553466796875,-0.0035890459548681974,-0.69517582654953,-0.06126823648810387,0.7162150144577026,47.8651008605957,79.13626861572266,-2573.482177734375,0.6611847281455994,0.056060902774333954,0.7481237649917603,0.0016358514549210668
2024/02/23/10:42:51.241162,1607,1708684971,240560035,,2.9003331661224365,-1.5404571294784546,0.5996766090393066,24.73821449279785,52.756351470947266,-58.04729080200195,135.32183837890625,-90.5057601928711,-2576.548095703125,-0.003402122762054205,-0.6951211094856262,-0.061459071934223175,0.7162526249885559,47.861942291259766,79.21650695800781,-2573.637939453125,0.6607121229171753,0.056362368166446686,0.7485165596008301,0.0023822342045605183
2024/02/23/10:42:51.292001,1608,1708684971,291146487,,2.890780448913574,-1.5133048295974731,0.54620361328125,26.055274963378906,51.40534210205078,-58.10553741455078,135.32272338867188,-90.5062026977539,-2576.609130859375,-0.004017554223537445,-0.694887638092041,-0.060838039964437485,0.7165289521217346,47.87116622924805,79.0809326171875,-2573.71875,0.6605573892593384,0.0565195307135582,0.7486435770988464,0.0015267501585185528
2024/02/23/10:42:51.341594,1609,1708684971,340917832,,2.912945508956909,-1.4998122453689575,0.515425980091095,28.32283592224121,48.38560104370117,-58.98632049560547,135.3183135986328,-90.50873565673828,-2576.59130859375,-0.004227759316563606,-0.695086658000946,-0.06065373867750168,0.7163503766059875,47.8416633605957,79.19221496582031,-2573.605224609375,0.6610554456710815,0.05612942576408386,0.7482324838638306,0.0018437320832163095
2024/02/23/10:42:51.391266,1610,1708684971,390591026,,2.9086599349975586,-1.5427014827728271,0.5797559022903442,25.413742065429688,50.375343322753906,-58.30175018310547,135.31256103515625,-90.50921630859375,-2576.52587890625,-0.004126954823732376,-0.6950076818466187,-0.06077076867222786,0.7164176106452942,47.848758697509766,79.2690658569336,-2573.435546875,0.660988986492157,0.05654942989349365,0.748256504535675,0.0028151050209999084
2024/02/23/10:42:51.440944,1611,1708684971,440415257,,2.912010669708252,-1.5093097686767578,0.5261809825897217,25.020221710205078,49.726287841796875,-56.79600143432617,135.32687377929688,-90.50670623779297,-2576.58935546875,-0.004062870051711798,-0.6950563192367554,-0.060815878212451935,0.7163669466972351,47.848045349121094,79.3525619506836,-2573.333740234375,0.6614474058151245,0.056376829743385315,0.7478629350662231,0.0031603549141436815
2024/02/23/10:42:51.491395,1612,1708684971,490890339,,2.957099437713623,-1.5206612348556519,0.5795885324478149,24.747451782226562,50.63447570800781,-58.77328109741211,135.3341064453125,-90.51306915283203,-2576.6181640625,-0.003965395502746105,-0.6947714686393738,-0.0609528049826622,0.716632068157196,47.91573715209961,78.91549682617188,-2573.594970703125,0.6608895063400269,0.057664286345243454,0.7482627630233765,0.0016381463501602411
2024/02/23/10:42:51.541998,1613,1708684971,541254320,,2.9697303771972656,-1.4775068759918213,0.5144643187522888,25.782146453857422,50.469329833984375,-58.05494689941406,135.32708740234375,-90.50894165039062,-2576.4970703125,-0.004552135244011879,-0.695526123046875,-0.06025280803442001,0.7159554958343506,47.9020881652832,78.8057632446289,-2573.61962890625,0.6603397130966187,0.05844862014055252,0.748686671257019,0.001862780307419598
2024/02/23/10:42:51.591692,1614,1708684971,591049478,,3.009263038635254,-1.460664987564087,0.33344459533691406,32.309940338134766,43.66875076293945,-56.07630920410156,135.30526733398438,-90.5040283203125,-2576.572509765625,-0.004332096315920353,-0.6951327323913574,-0.06048765778541565,0.7163190245628357,47.87851333618164,78.62854766845703,-2573.50634765625,0.6596506237983704,0.059262365102767944,0.7492302060127258,0.0017719748429954052
2024/02/23/10:42:51.642049,1615,1708684971,641241061,,3.055417060852051,-1.6125051975250244,0.46833503246307373,33.66206359863281,41.90996551513672,-57.31024169921875,135.2957305908203,-90.51319122314453,-2576.619873046875,-0.004488096106797457,-0.6949693560600281,-0.06043129414319992,0.7164813280105591,47.875919342041016,78.66348266601562,-2573.0087890625,0.6620658040046692,0.05890710651874542,0.7471257448196411,0.00140198168810457
2024/02/23/10:42:51.691424,1616,1708684971,690685471,,2.971665859222412,-1.5573487281799316,0.49659985303878784,27.508869171142578,48.1534538269043,-58.12486267089844,135.2872314453125,-90.51654052734375,-2576.6162109375,-0.004643199499696493,-0.694848895072937,-0.060324184596538544,0.7166061997413635,47.855281829833984,78.83744049072266,-2573.033447265625,0.6619361042976379,0.05723224952816963,0.7473716139793396,0.0007944854442030191
2024/02/23/10:42:51.741213,1617,1708684971,740462180,,2.9568541049957275,-1.5430556535720825,0.5358338356018066,26.090993881225586,50.540279388427734,-59.50868606567383,135.30252075195312,-90.5160140991211,-2576.692138671875,-0.004158785101026297,-0.6946825385093689,-0.06083524972200394,0.7167272567749023,47.89677047729492,78.7242431640625,-2573.367919921875,0.6607136726379395,0.05814572051167488,0.7483820915222168,0.0008621037704870105
2024/02/23/10:42:51.791465,1618,1708684971,790692229,,2.9588778018951416,-1.5595906972885132,0.6456150412559509,23.746753692626953,52.359683990478516,-61.66645812988281,135.31382751464844,-90.5096435546875,-2576.554443359375,-0.0038931199815124273,-0.6953665614128113,-0.06099172309041023,0.7160518169403076,47.934871673583984,78.61076354980469,-2573.494140625,0.6609339118003845,0.059088535606861115,0.7481132745742798,0.0012046427000313997
2024/02/23/10:42:51.840786,1619,1708684971,840184342,,2.9349403381347656,-1.5010550022125244,0.5443103313446045,24.479854583740234,51.29045486450195,-60.34807205200195,135.33688354492188,-90.50819396972656,-2576.465576171875,-0.004177158232778311,-0.6954269409179688,-0.06066663935780525,0.7160192131996155,47.92300033569336,78.73460388183594,-2573.488037109375,0.6608602404594421,0.05882014334201813,0.7481985688209534,0.0016960309585556388
2024/02/23/10:42:51.891293,1620,1708684971,890670536,,2.955714464187622,-1.5202621221542358,0.47934991121292114,27.13762092590332,47.40489959716797,-59.149349212646484,135.32359313964844,-90.5109634399414,-2576.67724609375,-0.004299855791032314,-0.6947746276855469,-0.06061823293566704,0.7166555523872375,47.895484924316406,78.81791687011719,-2573.200927734375,0.6610846519470215,0.05879844352602959,0.7480006814002991,0.0021811954211443663
2024/02/23/10:42:51.941021,1621,1708684971,940354589,,2.9509918689727783,-1.5779404640197754,0.5422203540802002,25.04324722290039,48.49817657470703,-59.024742126464844,135.32064819335938,-90.51261138916016,-2576.57958984375,-0.005169657990336418,-0.6951863169670105,-0.05974106118083,0.7163241505622864,47.8963623046875,78.76455688476562,-2573.124267578125,0.6620446443557739,0.05958256870508194,0.7470876574516296,0.002628716640174389
2024/02/23/10:42:51.990638,1622,1708684971,990081471,,2.917642593383789,-1.5715495347976685,0.5300179123878479,23.581676483154297,50.02892303466797,-59.08842086791992,135.32806396484375,-90.51837158203125,-2576.697265625,-0.004056923557072878,-0.6949167251586914,-0.06092327833175659,0.7164932489395142,47.903968811035156,78.79093170166016,-2573.0595703125,0.6622082591056824,0.05867108702659607,0.7470171451568604,0.0017988301115110517
2024/02/23/10:42:52.041280,1623,1708684972,40612463,,2.9179182052612305,-1.5694440603256226,0.509508490562439,23.858806610107422,50.25825881958008,-59.03096389770508,135.3259735107422,-90.50957489013672,-2576.586181640625,-0.004736775066703558,-0.6952508687973022,-0.060139186680316925,0.716231107711792,47.911476135253906,78.77967071533203,-2572.988037109375,0.6621760129928589,0.05845825374126434,0.7470631003379822,0.0015014817472547293
2024/02/23/10:42:52.091215,1624,1708684972,90567397,,2.901491641998291,-1.558645486831665,0.46344006061553955,25.520418167114258,48.85179901123047,-59.31386184692383,135.32318115234375,-90.50889587402344,-2576.60107421875,-0.004437543451786041,-0.6950879693031311,-0.060432251542806625,0.7163665294647217,47.89057540893555,78.75439453125,-2572.873046875,0.6627858877182007,0.0584339015185833,0.7465242743492126,0.0013641554396599531
2024/02/23/10:42:52.141282,1625,1708684972,140665431,,2.914524555206299,-1.5638724565505981,0.4376765489578247,27.305158615112305,47.28987503051758,-58.68889236450195,135.31988525390625,-90.50865173339844,-2576.660400390625,-0.004292765632271767,-0.6948498487472534,-0.06061935797333717,0.7165825963020325,47.877681732177734,78.81526947021484,-2572.83740234375,0.6626118421554565,0.05787913501262665,0.7467223405838013,0.0011501932749524713
2024/02/23/10:42:52.191576,1626,1708684972,190839962,,2.916532039642334,-1.5514096021652222,0.41981643438339233,28.35772705078125,45.642662048339844,-58.99546813964844,135.31582641601562,-90.50579833984375,-2576.611328125,-0.0042654904536902905,-0.6950070261955261,-0.06063494086265564,0.7164289355278015,47.85969161987305,78.8724136352539,-2572.95703125,0.6624327898025513,0.05826220661401749,0.7468500733375549,0.0018080363515764475
2024/02/23/10:42:52.240818,1627,1708684972,240413169,,2.934091567993164,-1.5956400632858276,0.5071948766708374,26.307157516479492,47.0084342956543,-58.84960174560547,135.31515502929688,-90.50381469726562,-2576.596923828125,-0.004658996593207121,-0.6951165199279785,-0.06017644703388214,0.7163589000701904,47.8912353515625,78.76900482177734,-2573.204833984375,0.6611073017120361,0.059626832604408264,0.7479130625724792,0.0027878396213054657
2024/02/23/10:42:52.291148,1628,1708684972,290565517,,2.9180264472961426,-1.6064854860305786,0.5261421799659729,24.539505004882812,49.25188446044922,-57.77203369140625,135.300537109375,-90.51032257080078,-2576.535400390625,-0.004610966891050339,-0.6949805617332458,-0.06035720929503441,0.7164759635925293,47.89274978637695,78.71223449707031,-2573.197509765625,0.661432147026062,0.059916902333498,0.7476027011871338,0.002762181218713522
2024/02/23/10:42:52.340586,1629,1708684972,340186075,,2.8961288928985596,-1.5668959617614746,0.44077593088150024,26.886356353759766,47.56260299682617,-58.19084167480469,135.31744384765625,-90.5079116821289,-2576.7119140625,-0.0037055648863315582,-0.6947020888328552,-0.061245858669281006,0.7166758179664612,47.866455078125,78.83818054199219,-2572.929443359375,0.6628809571266174,0.05758308246731758,0.7465065717697144,0.0009964278433471918
2024/02/23/10:42:52.390956,1630,1708684972,390367041,,2.918980121612549,-1.589341402053833,0.4398462772369385,28.76256561279297,45.944488525390625,-57.83613204956055,135.31610107421875,-90.50244903564453,-2576.63427734375,-0.00457167811691761,-0.694932758808136,-0.06025877222418785,0.7165308594703674,47.88056182861328,78.80670166015625,-2573.034423828125,0.6616418361663818,0.058040421456098557,0.7475687861442566,0.0015088903019204736
2024/02/23/10:42:52.441186,1631,1708684972,440617453,,2.939311981201172,-1.5969898700714111,0.4837522506713867,27.285825729370117,47.0422248840332,-57.57619094848633,135.3216552734375,-90.51526641845703,-2576.58349609375,-0.004770166706293821,-0.6950348019599915,-0.06012719124555588,0.7164416313171387,47.88602828979492,78.81598663330078,-2573.114990234375,0.6617324948310852,0.05926261097192764,0.7473889589309692,0.0027851841878145933
2024/02/23/10:42:52.490939,1632,1708684972,490448406,,2.9331912994384766,-1.5742931365966797,0.43836039304733276,27.820234298706055,46.844459533691406,-57.057823181152344,135.31771850585938,-90.49699401855469,-2576.5654296875,-0.004744567442685366,-0.695249080657959,-0.060058701783418655,0.7162395715713501,47.885581970214844,78.71813201904297,-2573.18701171875,0.6615855097770691,0.05875971168279648,0.7475621700286865,0.0016592632746323943
2024/02/23/10:42:52.542000,1633,1708684972,541129446,,2.95436429977417,-1.5909724235534668,0.4446920156478882,28.831737518310547,45.62553024291992,-57.23204040527344,135.30935668945312,-90.50933837890625,-2576.69482421875,-0.004536861553788185,-0.6946486234664917,-0.06039098650217056,0.7167953848838806,47.884422302246094,78.73705291748047,-2573.08740234375,0.6615883111953735,0.05943596363067627,0.7475038170814514,0.002512973267585039
2024/02/23/10:42:52.591653,1634,1708684972,590976749,,2.9410767555236816,-1.6039772033691406,0.420932412147522,29.157520294189453,45.81650924682617,-56.54408645629883,135.31143188476562,-90.51123046875,-2576.562255859375,-0.004431354347616434,-0.6951966881752014,-0.06046057119965553,0.7162586450576782,47.882694244384766,78.6588363647461,-2572.997314453125,0.6621633768081665,0.058796413242816925,0.7470479607582092,0.00137371348682791
2024/02/23/10:42:52.641258,1635,1708684972,640704359,,2.9411354064941406,-1.5926508903503418,0.3909233808517456,30.254032135009766,44.555049896240234,-57.433509826660156,135.3030548095703,-90.50830078125,-2576.62890625,-0.004623373504728079,-0.6948001980781555,-0.060300059616565704,0.7166555523872375,47.866554260253906,78.77400207519531,-2572.916259765625,0.6615660190582275,0.05917344614863396,0.7475444674491882,0.0024818251840770245
2024/02/23/10:42:52.691075,1636,1708684972,690523657,,2.94065523147583,-1.5848662853240967,0.3854109048843384,30.417680740356445,44.268089294433594,-57.29454040527344,135.3103790283203,-90.507568359375,-2576.59912109375,-0.003903479315340519,-0.6949788928031921,-0.060990359634160995,0.7164281606674194,47.87720489501953,78.71553039550781,-2572.97265625,0.661911129951477,0.05847332626581192,0.7472969889640808,0.0013264539884403348
2024/02/23/10:42:52.741307,1637,1708684972,740610801,,2.9506077766418457,-1.5929455757141113,0.4047342538833618,30.544391632080078,43.90484619140625,-58.09967803955078,135.3044891357422,-90.50477600097656,-2576.692626953125,-0.0028675803914666176,-0.6948105692863464,-0.06203949451446533,0.7165062427520752,47.87178039550781,78.66557312011719,-2573.0537109375,0.6618764400482178,0.05878692492842674,0.747303307056427,0.0012162348721176386
2024/02/23/10:42:52.791444,1638,1708684972,790724101,,2.93703031539917,-1.572554349899292,0.4286653399467468,30.19707489013672,44.38568878173828,-58.82737350463867,135.3109893798828,-90.5142593383789,-2576.65966796875,-0.0039004008285701275,-0.694828987121582,-0.06102631986141205,0.7165704965591431,47.88106918334961,78.71724700927734,-2573.313232421875,0.6609729528427124,0.058664754033088684,0.7481117844581604,0.0013981196098029613
2024/02/23/10:42:52.841751,1639,1708684972,841117898,,2.951125144958496,-1.5773931741714478,0.44451904296875,30.826852798461914,44.234012603759766,-58.39094161987305,135.30670166015625,-90.50540161132812,-2576.60693359375,-0.004133023787289858,-0.6950196623802185,-0.06076272204518318,0.7164066433906555,47.88381576538086,78.6765365600586,-2573.522705078125,0.660438060760498,0.058817096054553986,0.7485719323158264,0.0014828415587544441
2024/02/23/10:42:52.891890,1640,1708684972,891109191,,2.9259958267211914,-1.5479997396469116,0.3866652250289917,32.330989837646484,42.1035270690918,-57.752723693847656,135.32958984375,-90.50977325439453,-2576.593017578125,-0.004930506460368633,-0.6950505375862122,-0.059948649257421494,0.7164402604103088,47.861671447753906,78.88113403320312,-2573.5712890625,0.6602388620376587,0.05831419304013252,0.7487851977348328,0.002207912504673004
2024/02/23/10:42:52.941891,1641,1708684972,941364158,,2.934149980545044,-1.578931212425232,0.4675428867340088,32.576839447021484,41.23424530029297,-59.16144943237305,135.3317413330078,-90.505859375,-2576.6015625,-0.003989788703620434,-0.6949495673179626,-0.06091945618391037,0.7164621353149414,47.887203216552734,78.79981231689453,-2574.001953125,0.6586042642593384,0.05855036899447441,0.7502056360244751,0.0019515915773808956
2024/02/23/10:42:52.990971,1642,1708684972,990459329,,2.890810012817383,-1.5814357995986938,0.5308805108070374,28.895835876464844,44.46324920654297,-59.326080322265625,135.3306427001953,-90.5152816772461,-2576.64892578125,-0.0035225849132984877,-0.6949495077133179,-0.061420369893312454,0.716421902179718,47.882408142089844,78.91346740722656,-2574.1005859375,0.659241795539856,0.05833350867033005,0.7496609687805176,0.0024204864166677
2024/02/23/10:42:53.041641,1643,1708684973,41118734,,2.8782029151916504,-1.557324767112732,0.5102778673171997,29.446990966796875,43.985107421875,-59.42005157470703,135.32940673828125,-90.50489807128906,-2576.645263671875,-0.004775887355208397,-0.6948511600494385,-0.06010386720299721,0.7166216373443604,47.86865234375,79.02994537353516,-2574.03759765625,0.6589109301567078,0.05759350582957268,0.750009298324585,0.0023311881814152002
2024/02/23/10:42:53.091100,1644,1708684973,90485822,,2.8763842582702637,-1.5963155031204224,0.5910957455635071,26.917980194091797,45.653690338134766,-59.16529083251953,135.3067626953125,-90.49940490722656,-2576.67431640625,-0.003288923529908061,-0.6949365735054016,-0.0615975596010685,0.7164203524589539,47.8485221862793,79.16133880615234,-2574.016357421875,0.6594783067703247,0.05713708698749542,0.7495442032814026,0.002698902040719986
2024/02/23/10:42:53.141670,1645,1708684973,140920716,,2.8225741386413574,-1.5678852796554565,0.5946442484855652,23.34231948852539,47.980587005615234,-58.65705871582031,135.30194091796875,-90.50140380859375,-2576.60888671875,-0.004111184738576412,-0.6951126456260681,-0.06073253974318504,0.7163191437721252,47.826290130615234,79.2361831665039,-2573.90869140625,0.6601542234420776,0.05835157260298729,0.7488477826118469,0.004298749379813671
2024/02/23/10:42:53.191667,1646,1708684973,191032628,,2.829775094985962,-1.54960036277771,0.5835948586463928,22.57952117919922,47.96324157714844,-58.47315216064453,135.29763793945312,-90.51183319091797,-2576.579833984375,-0.004536747932434082,-0.6951221227645874,-0.06035555154085159,0.7163391709327698,47.84464645385742,79.05745697021484,-2574.12939453125,0.6589546799659729,0.058130886405706406,0.7499275207519531,0.00287532526999712
2024/02/23/10:42:53.241779,1647,1708684973,241231868,,2.865840435028076,-1.551478385925293,0.562698245048523,25.182931900024414,44.159332275390625,-58.595489501953125,135.31655883789062,-90.505126953125,-2576.67529296875,-0.00382746709510684,-0.6948981881141663,-0.061077311635017395,0.7164994478225708,47.84130096435547,79.1947021484375,-2574.030517578125,0.6592827439308167,0.058050040155649185,0.7496415972709656,0.0037358275149017572
2024/02/23/10:42:53.292159,1648,1708684973,291621117,,2.862070083618164,-1.5304806232452393,0.5957146286964417,23.217227935791016,45.26588821411133,-58.607261657714844,135.32553100585938,-90.51410675048828,-2576.638916015625,-0.004817135166376829,-0.6949076652526855,-0.06011724844574928,0.7165654301643372,47.84359359741211,79.30254364013672,-2574.229248046875,0.6589479446411133,0.0584561824798584,0.7498986721038818,0.004741358105093241
2024/02/23/10:42:53.341912,1649,1708684973,341286998,,2.8973801136016846,-1.481809139251709,0.5453061461448669,25.506263732910156,43.908931732177734,-58.19145202636719,135.33355712890625,-90.50623321533203,-2576.61328125,-0.004014334175735712,-0.6951065063476562,-0.06083103269338608,0.7163172364234924,47.90006637573242,78.81644439697266,-2574.77294921875,0.6566565036773682,0.06027589365839958,0.7517679333686829,0.0037372850347310305
2024/02/23/10:42:53.391421,1650,1708684973,390912811,,2.971163749694824,-1.5227729082107544,0.5640235543251038,28.937206268310547,38.070186614990234,-57.4100456237793,135.33042907714844,-90.50104522705078,-2576.649658203125,-0.0045401556417346,-0.69505774974823,-0.060292016714811325,0.7164070010185242,47.93443298339844,78.51664733886719,-2575.557373046875,0.6540046334266663,0.061593420803546906,0.7539700865745544,0.003647794248536229
2024/02/23/10:42:53.441781,1651,1708684973,441176509,,2.992658853530884,-1.5499825477600098,0.5995848178863525,28.087543487548828,35.64799118041992,-57.45236587524414,135.32028198242188,-90.50454711914062,-2576.674560546875,-0.004375530406832695,-0.6949134469032288,-0.06051001697778702,0.7165295481681824,47.9960823059082,78.0474853515625,-2576.1943359375,0.6521283388137817,0.06293822824954987,0.7554881572723389,0.002262973226606846
2024/02/23/10:42:53.491224,1652,1708684973,490739449,,3.044727325439453,-1.6365370750427246,0.7424189448356628,24.954866409301758,36.84366989135742,-57.48149108886719,135.32736206054688,-90.50609588623047,-2576.622314453125,-0.004087116569280624,-0.6950463056564331,-0.06081158667802811,0.7163769006729126,48.050804138183594,77.93545532226562,-2576.396484375,0.6526066660881042,0.06430304050445557,0.7549558877944946,0.003360447706654668
2024/02/23/10:42:53.541742,1653,1708684973,541090192,,2.974321126937866,-1.5395069122314453,0.6709171533584595,19.36410140991211,36.50080871582031,-55.658504486083984,135.33370971679688,-90.50399780273438,-2576.6435546875,-0.004903167951852083,-0.6949877738952637,-0.05996796488761902,0.7164996862411499,48.00168991088867,78.37297058105469,-2576.140869140625,0.6531041264533997,0.06535555422306061,0.7544107437133789,0.006940713617950678
2024/02/23/10:42:53.592042,1654,1708684973,591200327,,2.9737589359283447,-1.57888662815094,0.7659602165222168,15.295944213867188,37.91867446899414,-57.3176155090332,135.3408660888672,-90.50613403320312,-2576.82177734375,-0.00391358882188797,-0.6944934129714966,-0.06103479862213135,0.7168948650360107,47.977378845214844,78.75764465332031,-2575.52099609375,0.6547477841377258,0.06510201841592789,0.7529902458190918,0.008532214909791946
2024/02/23/10:42:53.641969,1655,1708684973,641204576,,2.943617105484009,-1.5261790752410889,0.7372527122497559,12.419530868530273,49.49790573120117,-57.0263557434082,135.34927368164062,-90.50286865234375,-2576.7060546875,-0.003775740973651409,-0.6951099634170532,-0.061110395938158035,0.7162914276123047,48.09639358520508,77.74694061279297,-2575.443359375,0.6553899645805359,0.0651298239827156,0.7524715065956116,0.0029637948609888554
2024/02/23/10:42:53.692106,1656,1708684973,691332329,,3.0156731605529785,-1.3655893802642822,0.3428799510002136,30.5383358001709,34.57059860229492,-59.3386116027832,135.32916259765625,-90.49189758300781,-2576.728759765625,-0.003740942571312189,-0.6947448253631592,-0.06114938482642174,0.716642439365387,47.98133850097656,78.11516571044922,-2575.212890625,0.6552032828330994,0.06410081684589386,0.7527192831039429,0.0036658996250480413
2024/02/23/10:42:53.741977,1657,1708684973,741310900,,2.9845190048217773,-1.5643612146377563,0.6850023865699768,24.487545013427734,36.680397033691406,-61.55216979980469,135.32923889160156,-90.5077133178711,-2576.63671875,-0.003955025691539049,-0.6951583027839661,-0.060907695442438126,0.7162607908248901,48.000545501708984,78.34999084472656,-2575.999755859375,0.6531599760055542,0.06439732760190964,0.754456102848053,0.005565164145082235
2024/02/23/10:42:53.792208,1658,1708684973,791824137,,2.883274555206299,-1.4795461893081665,0.5471088290214539,21.87779998779297,32.02382278442383,-56.15876770019531,135.31565856933594,-90.50841522216797,-2576.753662109375,-0.003451509866863489,-0.6947931051254272,-0.06154234707355499,0.7165634632110596,48.047271728515625,78.3067626953125,-2577.643310546875,0.6479818224906921,0.06728041172027588,0.7586273550987244,0.008802341297268867
2024/02/23/10:42:53.843113,1659,1708684973,842571372,,2.994661808013916,-1.353167176246643,0.20296895503997803,38.52486038208008,10.514689445495605,-54.2791633605957,135.32049560546875,-90.50398254394531,-2576.68798828125,-0.005156128201633692,-0.6948524117469788,-0.05977032333612442,0.7166457772254944,48.10804748535156,77.85061645507812,-2579.059814453125,0.6416758298873901,0.06897513568401337,0.7638258337974548,0.008038277737796307
2024/02/23/10:42:53.891110,1660,1708684973,890415905,,3.228034496307373,-1.5531282424926758,0.45155930519104004,50.28823471069336,6.357941627502441,-57.5224609375,135.32553100585938,-90.51744079589844,-2576.70361328125,-0.0024516249541193247,-0.6949287056922913,-0.06257257610559464,0.7163467407226562,48.23068618774414,77.0408935546875,-2579.597412109375,0.6408579349517822,0.06754060089588165,0.7646785974502563,0.0024737336207181215
2024/02/23/10:42:53.941988,1661,1708684973,941221096,,3.2376861572265625,-1.6105518341064453,0.7511755228042603,47.0809440612793,26.738250732421875,-59.28079605102539,135.33370971679688,-90.5257797241211,-2576.716796875,-0.004719869699329138,-0.6950156688690186,-0.060205865651369095,0.7164539098739624,48.31966018676758,77.05421447753906,-2579.981689453125,-0.6418866515159607,-0.06161228567361832,-0.7643156051635742,0.0026607231702655554
2024/02/23/10:42:53.992112,1662,1708684973,991140736,,3.1423187255859375,-1.4528634548187256,0.645928144454956,52.155731201171875,32.45821762084961,-60.88621139526367,135.33212280273438,-90.50341033935547,-2576.63720703125,-0.004080912098288536,-0.6951627135276794,-0.06079603359103203,0.7162652611732483,48.221092224121094,77.6951904296875,-2579.73681640625,-0.6431980133056641,-0.055907249450683594,-0.7636414766311646,0.004738710820674896
2024/02/23/10:42:54.042054,1663,1708684974,41243311,,3.114424228668213,-1.5150271654129028,0.8972991704940796,47.54197311401367,40.58655548095703,-61.87445831298828,135.32925415039062,-90.50707244873047,-2576.72705078125,-0.003645109012722969,-0.6949589848518372,-0.06120399758219719,0.7164306044578552,48.165584564208984,78.498291015625,-2579.675537109375,-0.6445631980895996,-0.05218895897269249,-0.7627590298652649,0.0036399257369339466
2024/02/23/10:42:54.092505,1664,1708684974,91640137,,2.8846852779388428,-1.5156794786453247,0.8897699117660522,35.26615524291992,49.64424133300781,-60.57862091064453,135.33834838867188,-90.51258850097656,-2576.71875,-0.003513338742777705,-0.6950792670249939,-0.06135425716638565,0.716301679611206,48.134620666503906,78.92840576171875,-2579.239501953125,-0.6473434567451477,-0.046867478638887405,-0.7607315182685852,0.006117063108831644
2024/02/23/10:42:54.142305,1665,1708684974,141517135,,2.814284563064575,-1.5278257131576538,0.8330373167991638,33.866798400878906,52.100704193115234,-61.323665618896484,135.33499145507812,-90.51773071289062,-2576.642578125,-0.005213869269937277,-0.6951358914375305,-0.05969225615262985,0.7163768410682678,48.09628677368164,79.26323699951172,-2578.488525390625,-0.6509050726890564,-0.03888343647122383,-0.7580661177635193,0.012102428823709488
2024/02/23/10:42:54.192520,1666,1708684974,191899767,,2.785423755645752,-1.5695594549179077,0.8153934478759766,28.399398803710938,59.321502685546875,-60.20205307006836,135.32937622070312,-90.516357421875,-2576.60009765625,-0.004443112760782242,-0.6952362656593323,-0.06044504791498184,0.7162215113639832,48.22987747192383,78.18638610839844,-2578.08251953125,-0.653258740901947,-0.026899930089712143,-0.7560747861862183,0.029670435935258865
2024/02/23/10:42:54.242195,1667,1708684974,241444994,,2.802274227142334,-1.4198169708251953,0.5253551006317139,36.74153137207031,52.57835388183594,-61.69887924194336,135.33273315429688,-90.51154327392578,-2576.56201171875,-0.004667575005441904,-0.6953642964363098,-0.06014068424701691,0.7161213755607605,48.15035629272461,78.62945556640625,-2578.130126953125,-0.65261310338974,-0.018355485051870346,-0.7566354274749756,0.03552497178316116
2024/02/23/10:42:54.292502,1668,1708684974,291877440,,2.8412539958953857,-1.6033926010131836,0.8075239062309265,31.819717407226562,56.412933349609375,-60.35378646850586,135.32534790039062,-90.50810241699219,-2576.583251953125,-0.003982694819569588,-0.6952580809593201,-0.060810867697000504,0.7161720395088196,48.18647003173828,78.70452117919922,-2578.36865234375,-0.6534410119056702,-0.013134356588125229,-0.755800724029541,0.040093857795000076
2024/02/23/10:42:54.341893,1669,1708684974,341247578,,2.8136892318725586,-1.5408053398132324,0.5946344137191772,33.27214050292969,55.39717483520508,-56.40824890136719,135.32614135742188,-90.51680755615234,-2576.7041015625,-0.003550179535523057,-0.6949572563171387,-0.06129808723926544,0.7164247035980225,48.20736312866211,78.2259292602539,-2578.460205078125,-0.6526505351066589,-0.013184626586735249,-0.7563660740852356,0.04223526641726494
2024/02/23/10:42:54.392089,1670,1708684974,391290874,,2.862905502319336,-1.6841915845870972,0.6681087017059326,32.234031677246094,51.006980895996094,-54.36354446411133,135.3154296875,-90.50652313232422,-2576.646240234375,-0.0037700990214943886,-0.6949557662010193,-0.061053115874528885,0.7164459228515625,48.185630798339844,78.28622436523438,-2578.203369140625,-0.654342770576477,-0.013851216062903404,-0.7549477219581604,0.041201792657375336
2024/02/23/10:42:54.443263,1671,1708684974,442505083,,2.662809133529663,-1.6875629425048828,0.8781437873840332,17.52499008178711,58.76223373413086,-59.32271957397461,135.31263732910156,-90.51067352294922,-2576.674560546875,-0.003989676479250193,-0.6950457692146301,-0.0608423687517643,0.7163753509521484,48.168846130371094,78.8146743774414,-2577.97607421875,-0.6550387144088745,-0.01576322130858898,-0.7545495629310608,0.03647899255156517
2024/02/23/10:42:54.492226,1672,1708684974,491613431,,2.4786911010742188,-1.5245180130004883,0.6588771343231201,10.747994422912598,52.8158073425293,-58.74717712402344,135.31890869140625,-90.52216339111328,-2576.70654296875,-0.004470418207347393,-0.6950142979621887,-0.06043996289372444,0.7164371013641357,47.996463775634766,80.22279357910156,-2577.578857421875,-0.6558635234832764,-0.015143636614084244,-0.7541406750679016,0.02975834161043167
2024/02/23/10:42:54.542142,1673,1708684974,541422009,,2.5732946395874023,-1.6091502904891968,0.6595234870910645,13.715790748596191,47.99931716918945,-57.17202377319336,135.3180389404297,-90.51167297363281,-2576.537109375,-0.0038979100063443184,-0.6952946782112122,-0.06093211844563484,0.7161266803741455,48.078025817871094,79.4360580444336,-2577.392578125,-0.6559900641441345,-0.01913662627339363,-0.7539244294166565,0.03014516457915306
2024/02/23/10:42:54.592099,1674,1708684974,591439763,,2.494166374206543,-1.746180772781372,0.7821944952011108,4.036096572875977,55.95930099487305,-57.15715789794922,135.3152618408203,-90.51110076904297,-2576.69970703125,-0.003614971414208412,-0.6947755813598633,-0.06127393990755081,0.716602623462677,48.16526794433594,78.81672668457031,-2577.10400390625,-0.6569508910179138,-0.02079518511891365,-0.75296550989151,0.03203217312693596
2024/02/23/10:42:54.641809,1675,1708684974,641085262,,2.5367021560668945,-1.6546783447265625,0.6835424304008484,7.893718719482422,53.224830627441406,-59.27967834472656,135.31365966796875,-90.5104751586914,-2576.627197265625,-0.004079803358763456,-0.6949435472488403,-0.06077132374048233,0.716480016708374,48.13280487060547,79.0425796508789,-2577.0498046875,-0.656781792640686,-0.02030305750668049,-0.7531569004058838,0.0313071645796299
2024/02/23/10:42:54.692511,1676,1708684974,691953117,,2.3832056522369385,-1.7823036909103394,1.0498061180114746,-5.126711368560791,64.06976318359375,-64.05638885498047,135.31210327148438,-90.5222396850586,-2576.68359375,-0.00441606855019927,-0.6947649121284485,-0.06049705296754837,0.7166745066642761,48.16129684448242,79.21583557128906,-2577.13623046875,-0.6580651998519897,-0.01971132680773735,-0.7520526647567749,0.03127942234277725
2024/02/23/10:42:54.742297,1677,1708684974,741580285,,2.2660555839538574,-1.647883415222168,0.9959160685539246,-8.244305610656738,67.75064849853516,-64.5290756225586,135.30181884765625,-90.51063537597656,-2576.511962890625,-0.004884765017777681,-0.6954519748687744,-0.059939268976449966,0.7160516381263733,48.12788391113281,79.44322204589844,-2577.160400390625,-0.6580397486686707,-0.018199382349848747,-0.752112865447998,0.03128351271152496
2024/02/23/10:42:54.792004,1678,1708684974,791444193,,2.2259597778320312,-1.753564715385437,1.0238937139511108,-9.101818084716797,68.32489776611328,-62.309024810791016,135.31845092773438,-90.51283264160156,-2576.65869140625,-0.0038835848681628704,-0.6950430870056152,-0.06098121404647827,0.7163667678833008,48.15392303466797,79.41184997558594,-2577.415283203125,-0.657508134841919,-0.019976183772087097,-0.7525935769081116,0.029781732708215714
2024/02/23/10:42:54.842477,1679,1708684974,841801372,,2.264116048812866,-1.7177780866622925,0.8804883360862732,-2.69453763961792,65.85966491699219,-60.61056900024414,135.32281494140625,-90.5212173461914,-2576.60595703125,-0.004206112585961819,-0.6954179406166077,-0.06065886467695236,0.7160283923149109,48.16566848754883,79.1755142211914,-2577.43798828125,-0.6569441556930542,-0.018315525725483894,-0.7530091404914856,0.03265228495001793
2024/02/23/10:42:54.892501,1680,1708684974,891802864,,2.2291152477264404,-1.8779911994934082,0.8938603401184082,0.2310633659362793,64.31340789794922,-60.02342224121094,135.3221893310547,-90.516845703125,-2576.693603515625,-0.003322763368487358,-0.6948093771934509,-0.06156796216964722,0.7165460586547852,48.19252395629883,78.94862365722656,-2577.267333984375,-0.6575509905815125,-0.017670143395662308,-0.7524188756942749,0.03435423597693443
2024/02/23/10:42:54.942481,1681,1708684974,941791571,,1.986868143081665,-2.023888111114502,0.7443714141845703,3.5281574726104736,61.18989181518555,-61.65235137939453,135.32672119140625,-90.52227783203125,-2576.497314453125,-0.004038157407194376,-0.6955316662788391,-0.06083879619836807,0.715903639793396,48.14681625366211,79.0520248413086,-2577.10205078125,-0.6579628586769104,-0.018800610676407814,-0.7521118521690369,0.0325452946126461
2024/02/23/10:42:54.992280,1682,1708684974,991787896,,1.9930616617202759,-2.1862902641296387,0.5871245265007019,14.763238906860352,52.83552551269531,-63.98322677612305,135.31817626953125,-90.52473449707031,-2576.561279296875,-0.004283473826944828,-0.6951999068260193,-0.06058526411652565,0.7162458896636963,48.287254333496094,77.51901245117188,-2577.673583984375,-0.6553441286087036,-0.022651609033346176,-0.7540696859359741,0.037281349301338196
2024/02/23/10:42:55.041656,1683,1708684975,41019866,,1.9890618324279785,-2.6074271202087402,0.796475887298584,15.861197471618652,56.826175689697266,-65.29134368896484,135.31573486328125,-90.53112030029297,-2576.68701171875,-0.004133854527026415,-0.6949611902236938,-0.06074836105108261,0.7164645791053772,48.585906982421875,75.01100158691406,-2578.11572265625,-0.6543858051300049,-0.028763391077518463,-0.7543006539344788,0.044524405151605606
2024/02/23/10:42:55.091733,1684,1708684975,91006137,,1.9510440826416016,-2.638734817504883,0.5372067093849182,22.012847900390625,53.15662384033203,-68.4852523803711,135.29241943359375,-90.52713775634766,-2576.56591796875,-0.004340506158769131,-0.6953023076057434,-0.06052124872803688,0.7161515951156616,48.69139862060547,73.6817626953125,-2578.071044921875,-0.6536048054695129,-0.033397071063518524,-0.754624605178833,0.04719173535704613
2024/02/23/10:42:55.142297,1685,1708684975,141621213,,1.882778525352478,-2.9338266849517822,0.5376834869384766,26.404521942138672,43.27976989746094,-70.10472869873047,135.29800415039062,-90.52689361572266,-2576.6337890625,-0.003626840189099312,-0.6948279142379761,-0.06127592921257019,0.716551661491394,48.64845657348633,73.44456481933594,-2577.37939453125,-0.6556868553161621,-0.03730729967355728,-0.7528299689292908,0.04393130913376808
2024/02/23/10:42:55.192138,1686,1708684975,191332544,,1.6273040771484375,-3.2505226135253906,0.9306390881538391,8.34990119934082,49.94348907470703,-69.81415557861328,135.29885864257812,-90.52745819091797,-2576.59765625,-0.004603289533406496,-0.6952080726623535,-0.06026333570480347,0.7162631750106812,48.54167938232422,74.51658630371094,-2577.112548828125,-0.6575468182563782,-0.0372384712100029,-0.7515703439712524,0.037247564643621445
2024/02/23/10:42:55.241938,1687,1708684975,241284865,,0.9824113845825195,-3.383986711502075,1.2546981573104858,-21.250213623046875,67.87262725830078,-72.374267578125,135.31353759765625,-90.51410675048828,-2576.469970703125,-0.003937096334993839,-0.6954036951065063,-0.060880616307258606,0.7160249948501587,48.394954681396484,76.3026351928711,-2576.794189453125,-0.6601055264472961,-0.035943105816841125,-0.7497534155845642,0.028959037736058235
2024/02/23/10:42:55.292306,1688,1708684975,291647637,,0.38754749298095703,-3.3313710689544678,1.112255573272705,-33.185333251953125,67.08419799804688,-75.00241088867188,135.3085479736328,-90.519287109375,-2576.6328125,-0.004478135146200657,-0.6950818300247192,-0.060442183166742325,0.7163713574409485,48.145626068115234,78.54594421386719,-2576.12109375,-0.6619678139686584,-0.032406728714704514,-0.7485509514808655,0.020492415875196457
2024/02/23/10:42:55.342237,1689,1708684975,341566361,,0.05674433708190918,-3.419358730316162,1.3154115676879883,-45.60346221923828,68.3109359741211,-80.41758728027344,135.3076171875,-90.51238250732422,-2576.70068359375,-0.0036497502587735653,-0.694970965385437,-0.06124246120452881,0.7164157032966614,47.944068908691406,80.5382308959961,-2575.982421875,-0.6628347635269165,-0.030811017379164696,-0.748039722442627,0.01171488780528307
2024/02/23/10:42:55.392432,1690,1708684975,391574782,,-0.06743645668029785,-3.3643951416015625,1.3347573280334473,-51.11479568481445,74.1489486694336,-80.85404968261719,135.3009033203125,-90.50738525390625,-2576.69677734375,-0.00353707536123693,-0.6948307752609253,-0.0613524429500103,0.7165427803993225,48.02149200439453,79.821044921875,-2576.465576171875,-0.6621366143226624,-0.03236336633563042,-0.7485412359237671,0.014618302695453167
2024/02/23/10:42:55.442267,1691,1708684975,441563700,,-0.19335412979125977,-3.5960304737091064,1.2905752658843994,-46.9367790222168,69.36227416992188,-81.78929138183594,135.29702758789062,-90.51191711425781,-2576.62158203125,-0.004474128130823374,-0.6948315501213074,-0.0604235902428627,0.7166157364845276,48.05942916870117,79.47767639160156,-2577.03466796875,-0.6597529649734497,-0.034309305250644684,-0.7505639791488647,0.01423822995275259
2024/02/23/10:42:55.492372,1692,1708684975,491784734,,-0.3451101779937744,-3.818645477294922,1.0565547943115234,-38.1103515625,66.5385971069336,-78.80550384521484,135.30760192871094,-90.51661682128906,-2576.61669921875,-0.00471592927351594,-0.6949570775032043,-0.06021658703684807,0.7165098190307617,48.21571731567383,77.62626647949219,-2577.29345703125,-0.6587244272232056,-0.037557922303676605,-0.7511561512947083,0.020879996940493584
2024/02/23/10:42:55.541446,1693,1708684975,540912607,,-0.21249103546142578,-4.208642959594727,1.282820224761963,-30.179567337036133,61.72772979736328,-80.62129211425781,135.30477905273438,-90.5155029296875,-2576.569580078125,-0.0036952157970517874,-0.6949812769889832,-0.06116931512951851,0.7164116501808167,48.28807067871094,76.73678588867188,-2577.36328125,-0.6584423780441284,-0.03933250159025192,-0.7512534856796265,0.022907765582203865
2024/02/23/10:42:55.591161,1694,1708684975,590785418,,-0.36236119270324707,-4.422769546508789,1.443781852722168,-45.397972106933594,74.78179931640625,-67.19766998291016,135.31759643554688,-90.52757263183594,-2576.679931640625,-0.0019827233627438545,-0.6946114301681519,-0.06299293786287308,0.716619074344635,48.29982376098633,77.10197448730469,-2577.447509765625,-0.6605267524719238,-0.03943151980638504,-0.7495238780975342,0.01906561106443405
2024/02/23/10:42:55.642363,1695,1708684975,641738516,,-0.34867334365844727,-4.686526298522949,0.5271953344345093,-20.20400619506836,41.923851013183594,-49.199981689453125,135.28994750976562,-90.51344299316406,-2576.568359375,-0.0038546298164874315,-0.6949391961097717,-0.061009254306554794,0.7164652943611145,46.263999938964844,78.29945373535156,-2577.957763671875,-0.6597297787666321,-0.041369445621967316,-0.7502613663673401,0.012369653210043907
2024/02/23/10:42:55.692370,1696,1708684975,691675507,,-0.22144746780395508,-4.612382888793945,1.0742671489715576,-43.315399169921875,62.39492416381836,-56.264678955078125,135.29078674316406,-90.52152252197266,-2576.62451171875,-0.0038963649421930313,-0.6950510144233704,-0.06105399131774902,0.7163528203964233,46.343780517578125,78.02059936523438,-2579.28369140625,-0.6590880751609802,-0.043380141258239746,-0.7506832480430603,0.0139924930408597
2024/02/23/10:42:55.742015,1697,1708684975,741391153,,0.2766447067260742,-3.8350653648376465,1.221804141998291,-54.095252990722656,74.36505889892578,-66.61912536621094,135.3069610595703,-90.5001220703125,-2576.658447265625,-0.0034544237423688173,-0.694751501083374,-0.061540815979242325,0.7166039347648621,46.550777435302734,77.21836853027344,-2580.740478515625,-0.6556884050369263,-0.04694092646241188,-0.7534107565879822,0.015538828447461128
2024/02/23/10:42:55.791469,1698,1708684975,791009910,,0.4473559856414795,-3.561861753463745,0.954383134841919,-47.45166015625,68.90512084960938,-63.29240798950195,135.3408203125,-90.48678588867188,-2576.66748046875,-0.003474244149401784,-0.6950778961181641,-0.061364006251096725,0.7163023948669434,46.5853271484375,76.8328857421875,-2580.950927734375,-0.6548401117324829,-0.0462748147547245,-0.7541292905807495,0.018222952261567116
2024/02/23/10:42:55.842074,1699,1708684975,841514249,,0.49361515045166016,-3.6877291202545166,0.7876989841461182,-37.560157775878906,59.154502868652344,-59.50845718383789,135.36036682128906,-90.46041107177734,-2576.670654296875,-0.0037415437400341034,-0.6951894760131836,-0.06119490787386894,0.7162072062492371,46.585304260253906,76.82816314697266,-2580.801513671875,-0.6539020538330078,-0.04588752239942551,-0.7549636363983154,0.01834188960492611
2024/02/23/10:42:55.892614,1700,1708684975,891615005,,0.6903469562530518,-3.670132875442505,0.607580304145813,-26.30190658569336,50.984981536865234,-57.277347564697266,135.36318969726562,-90.45794677734375,-2576.80517578125,-0.003184462198987603,-0.6950540542602539,-0.06174326688051224,0.7162942886352539,46.63062286376953,75.99502563476562,-2580.913818359375,-0.6534472107887268,-0.04849511384963989,-0.7551450729370117,0.020270224660634995
2024/02/23/10:42:55.942329,1701,1708684975,941682760,,0.6268919706344604,-3.8394412994384766,0.7525124549865723,-25.399789810180664,53.369956970214844,-64.78033447265625,135.3543701171875,-90.46212005615234,-2576.86328125,-0.0038871897850185633,-0.6946905851364136,-0.06112081557512283,0.7166966795921326,46.809478759765625,74.37098693847656,-2581.468994140625,-0.6519938111305237,-0.05236804485321045,-0.7559998631477356,0.02501617558300495
2024/02/23/10:42:55.992230,1702,1708684975,991595626,,0.5345543622970581,-4.151698112487793,0.6729497909545898,-17.79184341430664,52.6944580078125,-62.46435546875,135.34854125976562,-90.46381378173828,-2576.78515625,-0.003325744764879346,-0.6946207284927368,-0.061596304178237915,0.7167264819145203,46.913902282714844,72.42254638671875,-2581.9052734375,-0.6507952213287354,-0.05670008435845375,-0.7566011548042297,0.028378738090395927
2024/02/23/10:42:56.042420,1703,1708684976,41752261,,0.31413722038269043,-4.3329644203186035,0.665147066116333,-19.948781967163086,55.766109466552734,-65.47796630859375,135.359375,-90.46475982666016,-2576.6923828125,-0.003974599298089743,-0.6951700448989868,-0.06087566912174225,0.7162520289421082,46.95951461791992,71.95796966552734,-2581.993408203125,-0.6510382890701294,-0.05846143141388893,-0.7562248110771179,0.029248356819152832
2024/02/23/10:42:56.091786,1704,1708684976,91119533,,0.13666367530822754,-4.354710578918457,0.8224995136260986,-30.748456954956055,61.32063293457031,-72.62909698486328,135.36898803710938,-90.46514129638672,-2576.7880859375,-0.003416455117985606,-0.6949319839477539,-0.06149592250585556,0.7164329290390015,46.95954895019531,72.1406478881836,-2581.843505859375,-0.652700662612915,-0.05845842882990837,-0.7548214197158813,0.02844337746500969
2024/02/23/10:42:56.142398,1705,1708684976,141653188,,-0.010941028594970703,-4.40573263168335,1.0874605178833008,-45.57957458496094,63.58612823486328,-81.27082824707031,135.36875915527344,-90.47156524658203,-2576.726806640625,-0.0047684661112725735,-0.695148766040802,-0.0601399801671505,0.7163299918174744,46.83226776123047,73.54142761230469,-2581.7509765625,-0.6542031764984131,-0.06027663126587868,-0.7536444664001465,0.020123306661844254
2024/02/23/10:42:56.191847,1706,1708684976,191213741,,-0.20447421073913574,-4.153073787689209,0.9952685832977295,-64.11326599121094,72.08975219726562,-74.9905014038086,135.36361694335938,-90.4715805053711,-2576.823486328125,-0.003402452217414975,-0.6948332190513611,-0.061604660004377365,0.7165194153785706,46.605037689208984,75.42316436767578,-2581.537841796875,-0.6555243134498596,-0.05887642875313759,-0.7527909874916077,0.011276910081505775
2024/02/23/10:42:56.242388,1707,1708684976,241573854,,-0.09918546676635742,-4.165396213531494,0.844334602355957,-61.33425521850586,59.574100494384766,-65.99452209472656,135.359375,-90.46141815185547,-2576.7392578125,-0.004019017331302166,-0.694832444190979,-0.06093313544988632,0.7165744304656982,46.51169204711914,76.07170867919922,-2580.93896484375,-0.6568188667297363,-0.05874725431203842,-0.7517212629318237,0.007268644869327545
2024/02/23/10:42:56.292579,1708,1708684976,291921235,,-0.16537094116210938,-4.237512111663818,0.7710609436035156,-67.64671325683594,58.708587646484375,-55.24702835083008,135.3607940673828,-90.45826721191406,-2576.725830078125,-0.0042628631927073,-0.694908618927002,-0.06059885025024414,0.7165274620056152,46.38945007324219,77.09893798828125,-2580.16455078125,-0.6582749485969543,-0.05787846818566322,-0.7505456209182739,0.0023258172441273928
2024/02/23/10:42:56.342381,1709,1708684976,341564421,,-0.41187548637390137,-4.362231731414795,0.977837085723877,-81.56321716308594,67.22827911376953,-62.55880355834961,135.357421875,-90.44685363769531,-2576.703369140625,-0.003233523340895772,-0.6950674653053284,-0.06162891164422035,0.7162908911705017,46.26641845703125,78.35627746582031,-2579.32666015625,0.6622327566146851,0.05586756765842438,0.7472091913223267,0.002219908172264695
2024/02/23/10:42:56.392400,1710,1708684976,391616081,,-0.58319091796875,-4.387677192687988,1.0695228576660156,-91.96989440917969,80.50144958496094,-61.94971466064453,135.36102294921875,-90.45512390136719,-2576.80029296875,-0.004011271987110376,-0.6947969794273376,-0.060863662511110306,0.7166147232055664,46.25456237792969,78.63304138183594,-2579.085693359375,0.6634926795959473,0.05470043793320656,0.7461759448051453,0.00260563800111413
2024/02/23/10:42:56.442291,1711,1708684976,441585126,,-0.5936157703399658,-4.61142110824585,1.1902217864990234,-95.71845245361328,90.44947814941406,-57.08002471923828,135.3600616455078,-90.4463882446289,-2576.61181640625,-0.004622892010957003,-0.6953318119049072,-0.06015443801879883,0.716152012348175,46.40367126464844,77.35302734375,-2579.109375,-0.6627885103225708,-0.055970896035432816,-0.746708333492279,0.0023037074133753777
2024/02/23/10:42:56.492537,1712,1708684976,491856876,,-0.5989322662353516,-4.978322982788086,1.008462905883789,-85.443115234375,90.22974395751953,-44.528160095214844,135.35836791992188,-90.45246887207031,-2576.646240234375,-0.004071659408509731,-0.6954935789108276,-0.060714732855558395,0.7159509658813477,46.49146270751953,75.42607116699219,-2578.904052734375,-0.6637700796127319,-0.059264883399009705,-0.7455470561981201,0.007521126419305801
2024/02/23/10:42:56.542249,1713,1708684976,541596471,,-0.5941028594970703,-5.409067630767822,1.0418188571929932,-77.71195220947266,96.72612762451172,-33.20378112792969,135.34527587890625,-90.48031616210938,-2576.8193359375,-0.00325241731479764,-0.6945089101791382,-0.06160369887948036,0.7168344855308533,46.33473205566406,71.40150451660156,-2579.6044921875,-0.6617149710655212,-0.06570448726415634,-0.7466928362846375,0.01631012186408043
2024/02/23/10:42:56.591906,1714,1708684976,590875536,,-0.14540892839431763,-5.5405426025390625,0.5498964190483093,-37.683353424072266,75.98917388916016,-6.970463275909424,135.3271484375,-90.4666519165039,-2576.587646484375,-0.0038913735188543797,-0.6954222321510315,-0.0610179603099823,0.7159955501556396,44.932254791259766,63.95853042602539,-2581.404541015625,-0.6584241390228271,-0.07515998929738998,-0.7479913234710693,0.03657298907637596
2024/02/23/10:42:56.642451,1715,1708684976,641743785,,0.32728099822998047,-5.9264817237854,0.7846894264221191,-5.291088104248047,71.24657440185547,14.834931373596191,135.31356811523438,-90.52204132080078,-2576.73779296875,-0.0034035574644804,-0.6940496563911438,-0.06148410588502884,0.7172887921333313,44.08720397949219,55.913230895996094,-2583.553466796875,-0.655953586101532,-0.08818085491657257,-0.7475293278694153,0.05611509084701538
2024/02/23/10:42:56.691132,1716,1708684976,690646141,,0.8099633455276489,-5.717462539672852,0.7203737497329712,1.5195417404174805,76.76968383789062,15.149274826049805,135.3046875,-90.53057861328125,-2576.706298828125,-0.003916935995221138,-0.6939337849617004,-0.06094328314065933,0.7174444198608398,44.554866790771484,53.741634368896484,-2583.951416015625,-0.656145453453064,-0.09810835123062134,-0.7459405660629272,0.05848591402173042
2024/02/23/10:42:56.742755,1717,1708684976,742004728,,0.9408400058746338,-5.041985034942627,0.1331406831741333,5.598714828491211,40.87577819824219,6.072719573974609,135.31039428710938,-90.4844741821289,-2576.531005859375,-0.003451113821938634,-0.6946828365325928,-0.06151541694998741,0.7166726589202881,44.135108947753906,55.49599075317383,-2582.50830078125,-0.6540061235427856,-0.1008530855178833,-0.7480693459510803,0.04996875301003456
2024/02/23/10:42:56.793630,1718,1708684976,792819062,,1.1609437465667725,-4.617217063903809,-0.3296806812286377,25.768667221069336,-6.467483043670654,3.1170196533203125,135.3267822265625,-90.49027252197266,-2576.63623046875,-0.0030452858190983534,-0.6943692564964294,-0.06194881349802017,0.7169409990310669,43.70183563232422,57.16374588012695,-2580.18359375,-0.6525314450263977,-0.1010017991065979,-0.7497290968894958,0.04367641732096672
2024/02/23/10:42:56.842630,1719,1708684976,841882447,,1.2110612392425537,-4.531694412231445,-0.8699069023132324,51.28987503051758,-46.25544738769531,8.714614868164062,135.32180786132812,-90.44933319091797,-2576.490234375,-0.0024306136183440685,-0.6947861313819885,-0.06248354911804199,0.7164928913116455,43.33412170410156,58.385494232177734,-2578.589599609375,-0.6512484550476074,-0.10029399394989014,-0.7512288093566895,0.03836430609226227
2024/02/23/10:42:56.892432,1720,1708684976,891712483,,1.361903190612793,-4.536751747131348,-1.149320125579834,77.06621551513672,-80.91036987304688,8.029668807983398,135.310302734375,-90.47496795654297,-2576.565185546875,-0.0028494149446487427,-0.6945836544036865,-0.062076400965452194,0.7167230844497681,43.01655960083008,59.52764129638672,-2578.45166015625,-0.6492892503738403,-0.09790480136871338,-0.7533769011497498,0.03551740571856499
2024/02/23/10:42:56.942672,1721,1708684976,941817528,,1.3223061561584473,-4.556607723236084,-0.8713672161102295,78.20535278320312,-84.71744537353516,-1.2269039154052734,135.2954864501953,-90.47882843017578,-2576.60693359375,-0.003389946185052395,-0.6944114565849304,-0.061478376388549805,0.7169390916824341,42.97367477416992,60.06291198730469,-2580.109375,-0.6444706916809082,-0.09654735773801804,-0.7577078342437744,0.03485625982284546
2024/02/23/10:42:56.992982,1722,1708684976,992169085,,0.9317386150360107,-4.25378942489624,-0.8267199993133545,80.74524688720703,-81.02259826660156,-24.470108032226562,135.29718017578125,-90.49224853515625,-2576.624755859375,-0.0026951406616717577,-0.694378137588501,-0.06220512092113495,0.7169116139411926,43.09986114501953,60.18922424316406,-2582.3984375,-0.6391432285308838,-0.09188767522573471,-0.7624750137329102,0.04104273021221161
2024/02/23/10:42:57.043566,1723,1708684977,42730288,,0.6847810745239258,-4.113847255706787,-0.6570401191711426,99.58232116699219,-83.41261291503906,-55.033424377441406,135.30734252929688,-90.47542572021484,-2576.56640625,-0.0035390364937484264,-0.6948361992835999,-0.06131186708807945,0.7165409922599792,43.61471176147461,59.5923957824707,-2585.6689453125,-0.6306887865066528,-0.08855020999908447,-0.7693079113960266,0.050555650144815445
