time,.header.seq,.header.stamp.secs,.header.stamp.nsecs,.header.frame_id,.fX.data,.fY.data,.fZ.data,.mX.data,.mY.data,.mZ.data,.polaris.position.x,.polaris.position.y,.polaris.position.z,.polaris.orientation.x,.polaris.orientation.y,.polaris.orientation.z,.polaris.orientation.w,.polaristool2.position.x,.polaristool2.position.y,.polaristool2.position.z,.polaristool2.orientation.x,.polaristool2.orientation.y,.polaristool2.orientation.z,.polaristool2.orientation.w
2024/02/23/10:48:15.511579,5203,1708685295,510796232,,2.6670947074890137,-1.3948198556900024,-0.5943207740783691,-41.55442810058594,120.63261413574219,-50.0579948425293,128.64688110351562,-187.194091796875,-2468.597412109375,-0.012343861162662506,-0.6955954432487488,-0.05516994372010231,0.716205894947052,44.633949279785156,-18.054889678955078,-2473.295654296875,-0.6463683843612671,0.03681597113609314,-0.7568425536155701,0.0896763801574707
2024/02/23/10:48:15.561521,5204,1708685295,560825036,,2.619433879852295,-1.348052740097046,-0.7068047523498535,-43.2188606262207,118.61180114746094,-49.009193420410156,128.65280151367188,-187.1899871826172,-2468.52880859375,-0.01182564441114664,-0.6958627700805664,-0.05559154599905014,0.7159222960472107,44.58157730102539,-18.005029678344727,-2472.958740234375,-0.6469914317131042,0.03563879057765007,-0.7565109729766846,0.08844834566116333
2024/02/23/10:48:15.611552,5205,1708685295,610801313,,2.6623311042785645,-1.4032509326934814,-0.729724645614624,-41.93650436401367,113.23289489746094,-50.85375213623047,128.65174865722656,-187.20501708984375,-2468.659423828125,-0.011643117293715477,-0.6954440474510193,-0.055910706520080566,0.7163071632385254,44.57258605957031,-18.28913688659668,-2472.673095703125,-0.6474002599716187,0.03406401723623276,-0.7562068700790405,0.08867739886045456
2024/02/23/10:48:15.662845,5206,1708685295,661858282,,2.6519293785095215,-1.455305814743042,-0.7277085781097412,-43.94549560546875,111.94389343261719,-51.35724639892578,128.649658203125,-187.2052764892578,-2468.61474609375,-0.012529796920716763,-0.6953436732292175,-0.05504988133907318,0.7164563536643982,44.55052185058594,-18.59269142150879,-2472.21044921875,-0.6485365033149719,0.0319015234708786,-0.75542151927948,0.08786953240633011
2024/02/23/10:48:15.713133,5207,1708685295,712382017,,2.6579465866088867,-1.4740800857543945,-0.7687277793884277,-43.74041748046875,110.53729248046875,-51.94109344482422,128.64340209960938,-187.20169067382812,-2468.54248046875,-0.012784034945070744,-0.6956982016563416,-0.054799873381853104,0.7161267399787903,44.52690505981445,-18.827281951904297,-2471.759521484375,-0.6496779918670654,0.03130502253770828,-0.7544117569923401,0.08832532167434692
2024/02/23/10:48:15.761385,5208,1708685295,760781569,,2.6399569511413574,-1.4770351648330688,-0.7630214691162109,-46.292484283447266,110.81295776367188,-52.684356689453125,128.64813232421875,-187.21144104003906,-2468.601806640625,-0.0116345826536417,-0.6956113576889038,-0.05587796866893768,0.7161474227905273,44.42229461669922,-18.985572814941406,-2471.106689453125,-0.650850772857666,0.03128702938556671,-0.7533115744590759,0.08908503502607346
2024/02/23/10:48:15.811829,5209,1708685295,811365504,,2.599304676055908,-1.3923556804656982,-0.8638845682144165,-38.17029571533203,108.45333862304688,-52.440277099609375,128.650390625,-187.21922302246094,-2468.595947265625,-0.01219712384045124,-0.6954684853553772,-0.05528413504362106,0.7163228988647461,44.18642044067383,-20.07018280029297,-2470.423583984375,-0.6509827375411987,0.030769051983952522,-0.7528581619262695,0.09208346903324127
2024/02/23/10:48:15.861603,5210,1708685295,860932063,,2.6828126907348633,-1.4282186031341553,-0.9481250047683716,-24.73869514465332,100.35382843017578,-53.88270568847656,128.64492797851562,-187.21070861816406,-2468.572509765625,-0.011876746080815792,-0.6955611109733582,-0.0555795282125473,0.7162154316902161,44.13041687011719,-21.085588455200195,-2469.517822265625,-0.6523590087890625,0.028437120839953423,-0.7515543699264526,0.09372872114181519
2024/02/23/10:48:15.911245,5211,1708685295,910781831,,2.715827226638794,-1.5346643924713135,-0.8304635882377625,-28.89696502685547,100.47432708740234,-55.093055725097656,128.64202880859375,-187.21766662597656,-2468.608642578125,-0.01313809584826231,-0.6955205798149109,-0.05441026762127876,0.7163226008415222,44.09733200073242,-21.205158233642578,-2468.85888671875,-0.6548301577568054,0.02680644579231739,-0.7496513724327087,0.09220488369464874
2024/02/23/10:48:15.962453,5212,1708685295,961475320,,2.6848573684692383,-1.5019452571868896,-0.9282134771347046,-31.233928680419922,101.14242553710938,-53.72705841064453,128.63973999023438,-187.21958923339844,-2468.63232421875,-0.012483915314078331,-0.6955030560493469,-0.05501830577850342,0.7163048386573792,44.10679626464844,-21.94154167175293,-2468.134765625,-0.6572012305259705,0.023948639631271362,-0.7475872039794922,0.09287811815738678
2024/02/23/10:48:16.011984,5213,1708685296,11266026,,2.7055697441101074,-1.3951066732406616,-1.130614995956421,-23.13290786743164,91.02171325683594,-54.32549285888672,128.63800048828125,-187.2213897705078,-2468.606201171875,-0.012148029170930386,-0.695417046546936,-0.055380403995513916,0.7163662314414978,43.9976921081543,-21.786544799804688,-2468.171142578125,-0.6553455591201782,0.02380838617682457,-0.7493612766265869,0.09172278642654419
2024/02/23/10:48:16.062025,5214,1708685296,61292974,,2.8102803230285645,-1.3970646858215332,-1.0682196617126465,-13.880624771118164,82.51290130615234,-55.686256408691406,128.64122009277344,-187.22027587890625,-2468.591796875,-0.012346597388386726,-0.6954139471054077,-0.055154506117105484,0.7163832187652588,43.986541748046875,-22.06572914123535,-2469.024169921875,-0.6524813175201416,0.02397594228386879,-0.7516373991966248,0.09345871955156326
2024/02/23/10:48:16.111657,5215,1708685296,111018805,,2.9107072353363037,-1.4516713619232178,-0.9166221618652344,-12.34013557434082,78.77542114257812,-53.889217376708984,128.6485595703125,-187.22134399414062,-2468.5205078125,-0.011948044411838055,-0.6957595944404602,-0.055493079125881195,0.7160281538963318,44.01289749145508,-21.55675506591797,-2469.929931640625,-0.649532675743103,0.02395009994506836,-0.7544880509376526,0.09100259840488434
2024/02/23/10:48:16.161718,5216,1708685296,160972088,,2.8939061164855957,-1.4939907789230347,-0.7251954078674316,-19.77605438232422,84.06470489501953,-50.9603385925293,128.64544677734375,-187.23611450195312,-2468.642578125,-0.012550833635032177,-0.6952462792396545,-0.05501736328005791,0.7165530323982239,44.09160232543945,-20.879709243774414,-2470.715087890625,-0.6479955911636353,0.024530654773116112,-0.7561697363853455,0.08779135346412659
2024/02/23/10:48:16.211652,5217,1708685296,211083937,,2.7962281703948975,-1.4364793300628662,-0.7202959656715393,-23.787002563476562,91.93379974365234,-50.27943801879883,128.649169921875,-187.21583557128906,-2468.60205078125,-0.012072768993675709,-0.6953836679458618,-0.05538894236087799,0.7163992524147034,44.15336608886719,-20.98337173461914,-2470.8642578125,-0.6484836339950562,0.025058211758732796,-0.755608320236206,0.08886599540710449
2024/02/23/10:48:16.262024,5218,1708685296,261058559,,2.780209541320801,-1.4269442558288574,-0.724825382232666,-23.681533813476562,94.37628936767578,-52.17654037475586,128.65118408203125,-187.2302703857422,-2468.6220703125,-0.01276190672069788,-0.6954325437545776,-0.05475393682718277,0.7163887023925781,44.164310455322266,-20.731046676635742,-2470.732177734375,-0.649427056312561,0.026684056967496872,-0.7547078132629395,0.08915457874536514
2024/02/23/10:48:16.311880,5219,1708685296,311169611,,2.799992322921753,-1.515547513961792,-0.5338294506072998,-29.04631805419922,102.87571716308594,-52.353858947753906,128.64500427246094,-187.21910095214844,-2468.55712890625,-0.012866310775279999,-0.6955453753471375,-0.05457239970564842,0.716291069984436,44.23875045776367,-21.097415924072266,-2470.56494140625,-0.6505342125892639,0.0270883496850729,-0.7534288763999939,0.09174086153507233
2024/02/23/10:48:16.361923,5220,1708685296,361014167,,2.710510015487671,-1.4376577138900757,-0.5715988874435425,-33.93340301513672,110.6419906616211,-51.936614990234375,128.65444946289062,-187.21261596679688,-2468.57421875,-0.012095804326236248,-0.6955726146697998,-0.05531756579875946,0.7162209153175354,44.206275939941406,-20.62483024597168,-2470.295654296875,-0.6513285040855408,0.029177922755479813,-0.7527331709861755,0.09117360413074493
2024/02/23/10:48:16.411740,5221,1708685296,411149516,,2.708312511444092,-1.394970417022705,-0.6355948448181152,-30.093830108642578,110.89116668701172,-52.724090576171875,128.63967895507812,-187.2080078125,-2468.673583984375,-0.011856547556817532,-0.6950764060020447,-0.055637817829847336,0.716681718826294,44.20345687866211,-20.652793884277344,-2470.156494140625,-0.6518186926841736,0.03128112107515335,-0.7519236207008362,0.09362012892961502
2024/02/23/10:48:16.461761,5222,1708685296,461232804,,2.7104148864746094,-1.422849416732788,-0.5280277729034424,-30.141263961791992,116.03062438964844,-53.29825210571289,128.66259765625,-187.22792053222656,-2468.619140625,-0.012854990549385548,-0.695448637008667,-0.0546092763543129,0.7163823843002319,44.20055389404297,-20.50765609741211,-2470.29248046875,-0.6518158316612244,0.03294561803340912,-0.7517984509468079,0.09407325834035873
2024/02/23/10:48:16.511852,5223,1708685296,511102198,,2.6425836086273193,-1.4122544527053833,-0.47795069217681885,-34.1694221496582,123.9583969116211,-52.236602783203125,128.65203857421875,-187.21519470214844,-2468.746826171875,-0.012068640440702438,-0.6948321461677551,-0.05549748241901398,0.716925859451294,44.26087951660156,-20.342052459716797,-2470.536376953125,-0.6513091921806335,0.0349835529923439,-0.7520010471343994,0.09522034972906113
2024/02/23/10:48:16.561809,5224,1708685296,561029909,,2.621041774749756,-1.3693839311599731,-0.46574485301971436,-34.85511016845703,125.54296875,-51.666996002197266,128.65298461914062,-187.2113037109375,-2468.582275390625,-0.01259774249047041,-0.6954699754714966,-0.05484423413872719,0.7163482904434204,44.24022674560547,-19.912870407104492,-2470.77978515625,-0.6509761810302734,0.03658832237124443,-0.7522799372673035,0.09468960016965866
2024/02/23/10:48:16.611958,5225,1708685296,611052874,,2.6064631938934326,-1.4037753343582153,-0.3535076379776001,-39.03212356567383,128.8428192138672,-51.59477233886719,128.64837646484375,-187.20687866210938,-2468.4931640625,-0.013779542408883572,-0.6960155963897705,-0.053569916635751724,0.7158929109573364,44.26320266723633,-19.80423355102539,-2470.8701171875,-0.6510564684867859,0.03702092543244362,-0.7521868348121643,0.09470941126346588
2024/02/23/10:48:16.661690,5226,1708685296,660946158,,2.562601089477539,-1.3357925415039062,-0.5130414962768555,-40.08799362182617,128.11036682128906,-49.17589569091797,128.64532470703125,-187.22006225585938,-2468.6044921875,-0.013371246866881847,-0.6954895853996277,-0.05415358766913414,0.7163678407669067,44.18954849243164,-19.7000789642334,-2470.370849609375,-0.6520494818687439,0.03730996698141098,-0.7513464689254761,0.09443451464176178
2024/02/23/10:48:16.711678,5227,1708685296,710769822,,2.610114812850952,-1.2595539093017578,-0.9056455492973328,-28.127410888671875,113.32881164550781,-46.13151550292969,128.6429901123047,-187.21446228027344,-2468.5029296875,-0.013088795356452465,-0.6957700252532959,-0.05437042936682701,0.7160842418670654,44.06467056274414,-19.780887603759766,-2469.877685546875,-0.6521323919296265,0.036419060081243515,-0.7514291405677795,0.09354785829782486
2024/02/23/10:48:16.761668,5228,1708685296,761108333,,2.7136600017547607,-1.3589123487472534,-0.9685995578765869,-18.3690185546875,100.84574127197266,-47.532447814941406,128.64111328125,-187.21078491210938,-2468.57373046875,-0.011396967805922031,-0.6955350041389465,-0.05608323588967323,0.716209352016449,44.035072326660156,-20.055164337158203,-2469.558837890625,-0.6519441604614258,0.034630123525857925,-0.7517603635787964,0.09287583827972412
2024/02/23/10:48:16.811321,5229,1708685296,810551965,,2.75370717048645,-1.4712263345718384,-0.8379442095756531,-23.783138275146484,103.41517639160156,-47.9431037902832,128.64205932617188,-187.22225952148438,-2468.614990234375,-0.01216943934559822,-0.6952151656150818,-0.055403511971235275,0.7165600061416626,44.04831314086914,-20.66803550720215,-2469.100341796875,-0.6544029712677002,0.03149697184562683,-0.749813973903656,0.09243196249008179
2024/02/23/10:48:16.861749,5230,1708685296,861108641,,2.6793015003204346,-1.507257103919983,-0.7509017586708069,-33.96047592163086,111.4736328125,-49.89967346191406,128.63644409179688,-187.21546936035156,-2468.5302734375,-0.013098633848130703,-0.6956653594970703,-0.0543762668967247,0.7161852717399597,44.15102767944336,-21.380857467651367,-2468.680419921875,-0.656505286693573,0.028312183916568756,-0.748012125492096,0.09315052628517151
2024/02/23/10:48:16.911588,5231,1708685296,910899439,,2.6261205673217773,-1.3392572402954102,-1.048961877822876,-29.970760345458984,104.46871185302734,-52.05775833129883,128.64675903320312,-187.22056579589844,-2468.587158203125,-0.011951616033911705,-0.6953380107879639,-0.055570460855960846,0.7164315581321716,44.066139221191406,-21.263486862182617,-2468.635986328125,-0.6555388569831848,0.027608346194028854,-0.7489722967147827,0.09245045483112335
2024/02/23/10:48:16.961635,5232,1708685296,960948955,,2.718151092529297,-1.3585585355758667,-1.0323851108551025,-19.561084747314453,95.13987731933594,-56.113128662109375,128.63409423828125,-187.2189178466797,-2468.556396484375,-0.012566267512738705,-0.695560097694397,-0.05490981042385101,0.7162563800811768,44.08677291870117,-21.661224365234375,-2469.17724609375,-0.6526824831962585,0.02700892463326454,-0.7512765526771545,0.09412563592195511
2024/02/23/10:48:17.011409,5233,1708685297,10801254,,2.748892307281494,-1.4240808486938477,-0.8238382935523987,-20.010549545288086,97.07720947265625,-57.94179916381836,128.65235900878906,-187.2139129638672,-2468.521728515625,-0.01293717510998249,-0.6957781314849854,-0.054478857666254044,0.7160708904266357,44.08608627319336,-21.512840270996094,-2469.51806640625,-0.6525664925575256,0.027252858504652977,-0.7514358162879944,0.09358667582273483
2024/02/23/10:48:17.060515,5234,1708685297,60098109,,2.7139320373535156,-1.3676539659500122,-0.834551990032196,-20.883615493774414,99.41036987304688,-57.056068420410156,128.6396484375,-187.20787048339844,-2468.523681640625,-0.012542053125798702,-0.6957312822341919,-0.05486577749252319,0.716093897819519,44.107295989990234,-21.164976119995117,-2469.9189453125,-0.6511440277099609,0.02843092754483223,-0.7526761889457703,0.0931757465004921
2024/02/23/10:48:17.110273,5235,1708685297,109860939,,2.7580151557922363,-1.3695080280303955,-0.8577290177345276,-17.330299377441406,96.95500946044922,-56.73532485961914,128.64956665039062,-187.22543334960938,-2468.66796875,-0.011857720091938972,-0.6951867341995239,-0.05566426366567612,0.716572642326355,44.15815353393555,-20.838703155517578,-2470.291015625,-0.6504490375518799,0.028875749558210373,-0.7533649206161499,0.09232286363840103
2024/02/23/10:48:17.161670,5236,1708685297,160983780,,2.730750560760498,-1.4365566968917847,-0.6408402919769287,-24.51230239868164,103.55763244628906,-56.78633117675781,128.6402587890625,-187.2152557373047,-2468.5517578125,-0.012259960174560547,-0.6956287026405334,-0.05517146363854408,0.7161749005317688,44.22968673706055,-20.38912582397461,-2470.6484375,-0.6508064270019531,0.03130220249295235,-0.7528940439224243,0.09285333752632141
2024/02/23/10:48:17.211121,5237,1708685297,210601103,,2.7067222595214844,-1.403347134590149,-0.610150933265686,-26.37861442565918,109.39794158935547,-54.01641845703125,128.63807678222656,-187.2225799560547,-2468.63330078125,-0.012670544907450676,-0.6952912211418152,-0.054847437888383865,0.7165203094482422,44.28457260131836,-20.292469024658203,-2471.16064453125,-0.649610698223114,0.0328378900885582,-0.7537485957145691,0.09375844150781631
2024/02/23/10:48:17.262069,5238,1708685297,261268184,,2.6931896209716797,-1.3355172872543335,-0.5422597527503967,-27.136489868164062,114.26057434082031,-56.42888259887695,128.64431762695312,-187.204833984375,-2468.539306640625,-0.01194014959037304,-0.6958338022232056,-0.055511705577373505,0.7159547805786133,44.38379669189453,-20.169527053833008,-2472.16748046875,-0.646960973739624,0.03430861234664917,-0.7557857632637024,0.09514328837394714
2024/02/23/10:48:17.311157,5239,1708685297,310499563,,2.696059226989746,-1.304335355758667,-0.5501934885978699,-25.88262367248535,114.98420715332031,-56.3450813293457,128.64646911621094,-187.21075439453125,-2468.546875,-0.013036727905273438,-0.6957557201385498,-0.054378800094127655,0.716098427772522,44.452449798583984,-20.271339416503906,-2472.74951171875,-0.6454249620437622,0.03397780656814575,-0.7570693492889404,0.09548911452293396
2024/02/23/10:48:17.361605,5240,1708685297,360947192,,2.680631160736084,-1.3915214538574219,-0.45060431957244873,-29.019147872924805,116.41970825195312,-56.21274948120117,128.63877868652344,-187.2292022705078,-2468.65380859375,-0.013228246010839939,-0.69520503282547,-0.05425294488668442,0.7166391015052795,44.480506896972656,-20.438676834106445,-2472.653076171875,-0.6461845636367798,0.03272993117570877,-0.7566025853157043,0.09448152780532837
2024/02/23/10:48:17.411448,5241,1708685297,410755645,,2.594111919403076,-1.3533157110214233,-0.5486295223236084,-31.771211624145508,121.93174743652344,-56.24709701538086,128.6301727294922,-187.20652770996094,-2468.521728515625,-0.012797092087566853,-0.6957772374153137,-0.054545797407627106,0.7160691618919373,44.51893615722656,-20.845766067504883,-2472.450927734375,-0.6474480628967285,0.03293538838624954,-0.7552621960639954,0.09646380692720413
2024/02/23/10:48:17.461468,5242,1708685297,460743157,,2.60892653465271,-1.1912498474121094,-0.9417126178741455,-20.882156372070312,110.2695083618164,-55.14874267578125,128.6358184814453,-187.2216033935547,-2468.577392578125,-0.011926061473786831,-0.6954947710037231,-0.05550672113895416,0.7162846922874451,44.37202835083008,-20.734739303588867,-2472.15478515625,-0.6470791697502136,0.033204786479473114,-0.7555943131446838,0.09624569863080978
2024/02/23/10:48:17.511320,5243,1708685297,510690429,,2.7820162773132324,-1.326596975326538,-0.9171016812324524,-12.784852981567383,95.90211486816406,-56.932342529296875,128.64059448242188,-187.2197723388672,-2468.546630859375,-0.012413766235113144,-0.6956659555435181,-0.05498756840825081,0.7161502242088318,44.34489440917969,-21.14583396911621,-2472.0595703125,-0.6458041071891785,0.03104223497211933,-0.7567448616027832,0.09649163484573364
2024/02/23/10:48:17.562369,5244,1708685297,561706407,,2.7418253421783447,-1.495379090309143,-0.5577073097229004,-23.564008712768555,107.5323486328125,-57.37973403930664,128.64590454101562,-187.22654724121094,-2468.6533203125,-0.012166314758360386,-0.6952598094940186,-0.05531541258096695,0.7165235280990601,44.279598236083984,-21.65871810913086,-2471.15673828125,-0.6494306921958923,0.029727956280112267,-0.7537047266960144,0.09635955840349197
2024/02/23/10:48:17.611309,5245,1708685297,610800655,,2.607944965362549,-1.3799002170562744,-0.7091513872146606,-25.850549697875977,114.81944274902344,-57.1551628112793,128.64227294921875,-187.22125244140625,-2468.605712890625,-0.013136141933500767,-0.6954997777938843,-0.05427360162138939,0.716353178024292,44.24359130859375,-22.157733917236328,-2470.167236328125,-0.6521721482276917,0.02917962707579136,-0.7511724829673767,0.0977746918797493
2024/02/23/10:48:17.661718,5246,1708685297,660927025,,2.613776683807373,-1.306435465812683,-0.8404813408851624,-18.9841365814209,111.23666381835938,-58.50080871582031,128.64939880371094,-187.22000122070312,-2468.673828125,-0.012525029480457306,-0.6951768398284912,-0.05498821660876274,0.716623067855835,44.09008026123047,-21.959104537963867,-2469.546630859375,-0.6536161303520203,0.03059990331530571,-0.749862790107727,0.09775169938802719
2024/02/23/10:48:17.711251,5247,1708685297,710699885,,2.6875574588775635,-1.2098888158798218,-0.9208678007125854,-9.71368408203125,101.98101043701172,-60.633644104003906,128.640869140625,-187.22694396972656,-2468.654296875,-0.011798304505646229,-0.6953634023666382,-0.055681727826595306,0.7164007425308228,44.01219940185547,-21.5301513671875,-2470.060302734375,-0.6502174735069275,0.032911527901887894,-0.7525655031204224,0.09889005869626999
2024/02/23/10:48:17.761783,5248,1708685297,761059132,,2.7670130729675293,-1.4476135969161987,-0.4275485873222351,-18.449743270874023,108.21893310546875,-62.23295593261719,128.65582275390625,-187.23114013671875,-2468.675537109375,-0.012418706901371479,-0.6952232718467712,-0.05509360507130623,0.7165717482566833,44.085269927978516,-21.189197540283203,-2470.39306640625,-0.6501110196113586,0.033283405005931854,-0.7527729868888855,0.09788092225790024
2024/02/23/10:48:17.810861,5249,1708685297,810243823,,2.6295456886291504,-1.441752552986145,-0.3702113628387451,-32.07731628417969,124.63973236083984,-60.076045989990234,128.65274047851562,-187.21568298339844,-2468.696533203125,-0.012221859768033028,-0.695344090461731,-0.05534382909536362,0.7164385914802551,44.26811218261719,-21.56968879699707,-2470.24560546875,-0.6529499888420105,0.0322994627058506,-0.7502432465553284,0.09873241931200027
2024/02/23/10:48:17.861540,5250,1708685297,860969440,,2.5549476146698,-1.293638825416565,-0.7005137205123901,-29.10123062133789,124.05807495117188,-59.72151565551758,128.65972900390625,-187.2004852294922,-2468.5849609375,-0.012034235522150993,-0.6956189274787903,-0.055354081094264984,0.7161741852760315,44.23699188232422,-21.304750442504883,-2469.9091796875,-0.6538454294204712,0.03258516266942024,-0.7495748400688171,0.09778469800949097
2024/02/23/10:48:17.910875,5251,1708685297,910281794,,2.6108946800231934,-1.3340590000152588,-0.7063054442405701,-23.986377716064453,119.12236022949219,-61.30799102783203,128.65341186523438,-187.21170043945312,-2468.48974609375,-0.013349737040698528,-0.6959046721458435,-0.0540923997759819,0.7159696221351624,44.194950103759766,-21.0225830078125,-2469.572998046875,-0.6535735130310059,0.03435470908880234,-0.7496839761734009,0.09815966337919235
2024/02/23/10:48:17.961896,5252,1708685297,961386671,,2.581106424331665,-1.3000612258911133,-0.7117801904678345,-23.292736053466797,120.62566375732422,-60.92477798461914,128.64300537109375,-187.20201110839844,-2468.6103515625,-0.01198264118283987,-0.695301353931427,-0.05551793798804283,0.7164706587791443,44.1124153137207,-20.860288619995117,-2469.3251953125,-0.654234766960144,0.035796090960502625,-0.7490066289901733,0.09841013699769974
2024/02/23/10:48:18.010792,5253,1708685298,10146441,,2.6407790184020996,-1.2373273372650146,-0.9099621772766113,-16.323871612548828,112.20770263671875,-60.02289962768555,128.64556884765625,-187.21511840820312,-2468.601806640625,-0.011864651925861835,-0.6955620646476746,-0.055573686957359314,0.716215193271637,44.07612991333008,-21.120868682861328,-2469.36962890625,-0.6530182957649231,0.034332357347011566,-0.7500948905944824,0.09872201085090637
2024/02/23/10:48:18.061595,5254,1708685298,60921803,,2.720993995666504,-1.4404467344284058,-0.6984884142875671,-18.866897583007812,112.21949005126953,-58.6793098449707,128.64407348632812,-187.23216247558594,-2468.66552734375,-0.011933893896639347,-0.6951557993888855,-0.05568135902285576,0.7166000008583069,44.075157165527344,-21.441734313964844,-2469.24462890625,-0.654660701751709,0.033348701894283295,-0.7487804293632507,0.09815872460603714
2024/02/23/10:48:18.109957,5255,1708685298,109592244,,2.6619086265563965,-1.3891017436981201,-0.7668951749801636,-24.237367630004883,119.19341278076172,-56.747802734375,128.64541625976562,-187.21034240722656,-2468.536865234375,-0.011793632060289383,-0.6958523392677307,-0.05561750382184982,0.7159309983253479,44.11429214477539,-22.188766479492188,-2468.736572265625,-0.6565489768981934,0.03155846893787384,-0.7469785213470459,0.09985274076461792
2024/02/23/10:48:18.161554,5256,1708685298,160894849,,2.662294387817383,-1.3412612676620483,-0.8914393782615662,-18.901756286621094,115.7323989868164,-57.37821960449219,128.6470184326172,-187.21351623535156,-2468.6396484375,-0.011413760483264923,-0.6953120827674866,-0.05607208237051964,0.7164263725280762,44.05730438232422,-22.885025024414062,-2468.306884765625,-0.6573563814163208,0.029491491615772247,-0.7462820410728455,0.10037893801927567
2024/02/23/10:48:18.210578,5257,1708685298,209967332,,2.6324353218078613,-1.3476505279541016,-0.9017990231513977,-20.10980987548828,115.8036117553711,-61.355533599853516,128.6528778076172,-187.2198486328125,-2468.50830078125,-0.012255359441041946,-0.6958698630332947,-0.055240996181964874,0.7159353494644165,44.068050384521484,-22.780750274658203,-2468.03759765625,-0.6576197743415833,0.029528845101594925,-0.7460626363754272,0.10027360171079636
2024/02/23/10:48:18.261739,5258,1708685298,260998798,,2.6684751510620117,-1.2336723804473877,-0.9964496493339539,-12.11970043182373,108.2069320678711,-65.88762664794922,128.65545654296875,-187.21856689453125,-2468.576171875,-0.013471385464072227,-0.6956645250320435,-0.05396931618452072,0.716209888458252,43.95938491821289,-23.190990447998047,-2467.915283203125,-0.6567746996879578,0.029707463458180428,-0.7464030385017395,0.10318387299776077
2024/02/23/10:48:18.310747,5259,1708685298,310231851,,2.6919660568237305,-1.2461718320846558,-0.8134511113166809,-10.69656753540039,107.49556732177734,-69.1511459350586,128.64251708984375,-187.195068359375,-2468.521728515625,-0.012334432452917099,-0.6957424283027649,-0.05501716211438179,0.71607506275177,43.89436721801758,-22.867116928100586,-2468.193603515625,-0.6559560894966125,0.030999107286334038,-0.7471693754196167,0.10246292501688004
2024/02/23/10:48:18.361634,5260,1708685298,360852393,,2.674470901489258,-1.2606548070907593,-0.7224162817001343,-12.066450119018555,110.18511199951172,-66.45641326904297,128.64630126953125,-187.2037811279297,-2468.488037109375,-0.012889121659100056,-0.6957557201385498,-0.054530538618564606,0.7160895466804504,43.846473693847656,-22.373641967773438,-2468.2568359375,-0.6558811664581299,0.033176738768815994,-0.7472495436668396,0.10167247802019119
2024/02/23/10:48:18.410815,5261,1708685298,410331289,,2.696406126022339,-1.2226485013961792,-0.8132703304290771,-9.14842414855957,108.53406524658203,-63.17988204956055,128.6436767578125,-187.2145538330078,-2468.579345703125,-0.012605750001966953,-0.6954660415649414,-0.05488204210996628,0.7163491249084473,43.910186767578125,-22.519136428833008,-2469.005126953125,-0.6531476378440857,0.03339070826768875,-0.7494475841522217,0.10301252454519272
2024/02/23/10:48:18.461780,5262,1708685298,461185347,,2.700082302093506,-1.2950021028518677,-0.6371698975563049,-12.542436599731445,112.90583801269531,-64.4681167602539,128.6479034423828,-187.22763061523438,-2468.66015625,-0.012156103737652302,-0.695381760597229,-0.055401142686605453,0.7163987755775452,43.976531982421875,-22.406919479370117,-2469.560302734375,-0.6528244614601135,0.033768732100725174,-0.7497882843017578,0.10245698690414429
2024/02/23/10:48:18.510967,5263,1708685298,510333338,,2.589477777481079,-1.165948748588562,-1.009742259979248,-7.086336135864258,109.76170349121094,-60.76679229736328,128.64425659179688,-187.2154998779297,-2468.583740234375,-0.012058055959641933,-0.6957240700721741,-0.05539407208561897,0.7160685062408447,43.900718688964844,-22.36463737487793,-2468.89990234375,-0.654392659664154,0.03336763381958008,-0.748658299446106,0.10083486884832382
2024/02/23/10:48:18.561525,5264,1708685298,561026946,,2.6695594787597656,-1.3306398391723633,-1.093153476715088,-4.701291561126709,99.30667114257812,-59.835819244384766,128.64288330078125,-187.20826721191406,-2468.508544921875,-0.012769884429872036,-0.695748507976532,-0.05461078882217407,0.716092586517334,43.83829879760742,-22.526826858520508,-2467.952392578125,-0.6569056510925293,0.03202838450670242,-0.7465905547142029,0.10025815665721893
2024/02/23/10:48:18.611074,5265,1708685298,610246560,,2.6489059925079346,-1.3854129314422607,-1.1502559185028076,-8.603971481323242,97.02245330810547,-56.903133392333984,128.6317596435547,-187.2215118408203,-2468.539794921875,-0.012055378407239914,-0.6956536173820496,-0.05537254363298416,0.7161386609077454,43.83155822753906,-23.221614837646484,-2467.064208984375,-0.6589137315750122,0.02646445296704769,-0.7453932762145996,0.09757678210735321
2024/02/23/10:48:18.661702,5266,1708685298,660975879,,2.736543893814087,-1.2845488786697388,-1.450501799583435,2.0844104290008545,83.4485092163086,-56.71169662475586,128.63418579101562,-187.23257446289062,-2468.611572265625,-0.011667663231492043,-0.6953049302101135,-0.055822014808654785,0.7164487838745117,43.73765563964844,-23.65420150756836,-2466.737548828125,-0.6586459875106812,0.02445773035287857,-0.7456106543540955,0.09824512898921967
2024/02/23/10:48:18.711046,5267,1708685298,710482170,,2.869187593460083,-1.3155404329299927,-1.3433595895767212,7.6382060050964355,74.3067855834961,-58.530364990234375,128.6356201171875,-187.2305145263672,-2468.55029296875,-0.012568000704050064,-0.6956399083137512,-0.054845210164785385,0.7161837220191956,43.62199401855469,-23.37973403930664,-2466.63623046875,-0.6573558449745178,0.024142468348145485,-0.7469815611839294,0.09653501212596893
2024/02/23/10:48:18.761514,5268,1708685298,760821594,,2.9320456981658936,-1.4055107831954956,-1.1631606817245483,6.366050720214844,72.25978088378906,-59.11311340332031,128.63034057617188,-187.23191833496094,-2468.56396484375,-0.012595665641129017,-0.695570170879364,-0.054800983518362045,0.7162543535232544,43.64164733886719,-23.220211029052734,-2466.603759765625,-0.6578838229179382,0.022626865655183792,-0.746849000453949,0.09430539608001709
2024/02/23/10:48:18.811054,5269,1708685298,810448652,,2.8763186931610107,-1.5204206705093384,-0.829132080078125,-11.799919128417969,86.20771026611328,-58.73196029663086,128.63890075683594,-187.22523498535156,-2468.5625,-0.013016317039728165,-0.6956292986869812,-0.054438989609479904,0.716217041015625,43.7514533996582,-23.199920654296875,-2466.572509765625,-0.6588791608810425,0.022136680781841278,-0.7459750175476074,0.09438998252153397
2024/02/23/10:48:18.861753,5270,1708685298,861120223,,2.765070676803589,-1.369062900543213,-0.9577622413635254,-15.566104888916016,93.02629089355469,-57.517826080322266,128.64659118652344,-187.2142333984375,-2468.611083984375,-0.011979911476373672,-0.695358395576477,-0.05546444281935692,0.7164194583892822,43.79697036743164,-23.338729858398438,-2466.659912109375,-0.6590229272842407,0.022014468908309937,-0.7457645535469055,0.09507552534341812
2024/02/23/10:48:18.911236,5271,1708685298,910582341,,2.815154790878296,-1.2436574697494507,-1.2607145309448242,-0.812468409538269,78.96376037597656,-58.85000228881836,128.64617919921875,-187.2294464111328,-2468.57470703125,-0.012244327925145626,-0.6955777406692505,-0.055200912058353424,0.7162224054336548,43.70329666137695,-22.990062713623047,-2466.946044921875,-0.656486451625824,0.023875772953033447,-0.7479260563850403,0.09519492089748383
2024/02/23/10:48:18.961515,5272,1708685298,960915296,,2.8677027225494385,-1.3590044975280762,-1.0470503568649292,0.5103136301040649,78.02579498291016,-59.97354507446289,128.65106201171875,-187.2257537841797,-2468.664306640625,-0.011242388747632504,-0.6952719688415527,-0.05619725212454796,0.7164582014083862,43.723636627197266,-22.91534996032715,-2467.280029296875,-0.6554833650588989,0.024849040433764458,-0.7487077713012695,0.09571167826652527
2024/02/23/10:48:19.012061,5273,1708685299,11135832,,2.8294878005981445,-1.3918622732162476,-0.9749882221221924,-5.289117813110352,82.54536437988281,-59.1933479309082,128.63681030273438,-187.2237091064453,-2468.672119140625,-0.012068853713572025,-0.6952698826789856,-0.05539344623684883,0.7165094017982483,43.80018997192383,-22.812177658081055,-2467.4814453125,-0.656186580657959,0.023924076929688454,-0.748283863067627,0.0944354310631752
2024/02/23/10:48:19.061886,5274,1708685299,61153285,,2.8125150203704834,-1.4002617597579956,-0.9701685905456543,-10.111472129821777,83.76190948486328,-58.102447509765625,128.6498260498047,-187.2133331298828,-2468.602294921875,-0.012457022443413734,-0.6954718232154846,-0.054944127798080444,0.7163413166999817,43.84904479980469,-22.843162536621094,-2467.6728515625,-0.6550024747848511,0.02146233059465885,-0.7496390342712402,0.09247953444719315
2024/02/23/10:48:19.111723,5275,1708685299,111077004,,2.8090097904205322,-1.3469196557998657,-1.1045633554458618,-7.836335182189941,81.58686828613281,-57.450584411621094,128.64309692382812,-187.22998046875,-2468.657470703125,-0.012350209057331085,-0.6952336430549622,-0.05516736954450607,0.7165572047233582,43.843658447265625,-23.007354736328125,-2467.801025390625,-0.6549401879310608,0.02108822390437126,-0.7496904730796814,0.09258972853422165
2024/02/23/10:48:19.161615,5276,1708685299,160976063,,2.823103427886963,-1.4517346620559692,-0.9144322276115417,-9.541022300720215,83.96910858154297,-58.12260818481445,128.64450073242188,-187.21730041503906,-2468.601318359375,-0.011164845898747444,-0.6951938271522522,-0.056365929543972015,0.7165219783782959,43.83611297607422,-23.197782516479492,-2467.509765625,-0.6568014025688171,0.021519118919968605,-0.7479512095451355,0.09336921572685242
2024/02/23/10:48:19.211615,5277,1708685299,211113123,,2.7323508262634277,-1.46029794216156,-0.7770081758499146,-18.974355697631836,94.29969787597656,-57.77553176879883,128.6359405517578,-187.23440551757812,-2468.607177734375,-0.012475649826228619,-0.6952884197235107,-0.055055826902389526,0.7165104746818542,43.84574508666992,-23.210067749023438,-2467.30078125,-0.6582434177398682,0.022043317556381226,-0.7466398477554321,0.09358731657266617
2024/02/23/10:48:19.261571,5278,1708685299,260869178,,2.6641623973846436,-1.318297028541565,-0.9431332349777222,-16.739852905273438,95.58984375,-57.93714141845703,128.6350860595703,-187.2139892578125,-2468.652587890625,-0.011557930149137974,-0.6952813267707825,-0.055905308574438095,0.7164669632911682,43.833255767822266,-23.40411376953125,-2467.498779296875,-0.6569518446922302,0.02240077033638954,-0.7476146221160889,0.09478848427534103
2024/02/23/10:48:19.311253,5279,1708685299,310702308,,2.7699081897735596,-1.2840681076049805,-1.0207452774047852,-6.537067413330078,87.86860656738281,-58.82033920288086,128.64816284179688,-187.22909545898438,-2468.59912109375,-0.012015731073915958,-0.695517361164093,-0.05547088757157326,0.716264009475708,43.848533630371094,-23.6788387298584,-2468.354736328125,-0.6540082097053528,0.02242872305214405,-0.7499645352363586,0.09655766189098358
2024/02/23/10:48:19.361750,5280,1708685299,360982236,,2.882171869277954,-1.361646056175232,-0.8600659966468811,-4.442481517791748,86.69676971435547,-56.43406677246094,128.63592529296875,-187.22496032714844,-2468.517333984375,-0.012898671440780163,-0.695825457572937,-0.054446134716272354,0.716028094291687,43.90575408935547,-23.585649490356445,-2469.2607421875,-0.6519320607185364,0.023143325001001358,-0.7517563104629517,0.09649553149938583
2024/02/23/10:48:19.411418,5281,1708685299,410879841,,2.8656842708587646,-1.2939293384552002,-0.9691134691238403,-2.0292749404907227,83.91650390625,-49.545833587646484,128.64981079101562,-187.21884155273438,-2468.540283203125,-0.012961020693182945,-0.6955208778381348,-0.05442769452929497,0.7163241505622864,43.84647750854492,-22.735496520996094,-2469.987548828125,-0.6497828364372253,0.025190265849232674,-0.7539269328117371,0.09349802881479263
2024/02/23/10:48:19.461375,5282,1708685299,460734272,,2.9037935733795166,-1.3810595273971558,-0.8116471767425537,-2.782768964767456,86.19993591308594,-47.62468719482422,128.62844848632812,-187.22686767578125,-2468.609130859375,-0.012658496387302876,-0.6953063607215881,-0.05479948967695236,0.7165094614028931,43.95291519165039,-22.386611938476562,-2470.82763671875,-0.6481574773788452,0.026569686830043793,-0.7553110122680664,0.09322661906480789
2024/02/23/10:48:19.511574,5283,1708685299,510803614,,2.8584723472595215,-1.3383394479751587,-0.7825668454170227,-6.540696144104004,91.95500946044922,-48.2913703918457,128.63320922851562,-187.22023010253906,-2468.628173828125,-0.012036755681037903,-0.6953237652778625,-0.05541694536805153,0.7164558172225952,44.06071090698242,-22.43366813659668,-2471.398681640625,-0.6474559903144836,0.027291232720017433,-0.7556814551353455,0.09487561881542206
2024/02/23/10:48:19.561349,5284,1708685299,560719459,,2.825439929962158,-1.31343674659729,-0.7890965342521667,-8.416459083557129,92.51022338867188,-48.86345291137695,128.62741088867188,-187.2244110107422,-2468.667724609375,-0.011198125779628754,-0.695220410823822,-0.05634020268917084,0.7164977192878723,44.10466384887695,-22.04303550720215,-2471.777587890625,-0.6468455791473389,0.026994595304131508,-0.7564370632171631,0.09308622777462006
2024/02/23/10:48:19.611310,5285,1708685299,610655829,,2.839015007019043,-1.274163842201233,-0.8560523986816406,-6.152956962585449,89.32010650634766,-51.481170654296875,128.6445770263672,-187.22384643554688,-2468.60791015625,-0.012561903335154057,-0.6955966353416443,-0.054847121238708496,0.7162257432937622,44.18152618408203,-22.227542877197266,-2472.159423828125,-0.6445643901824951,0.02584822103381157,-0.7583068609237671,0.09401785582304001
2024/02/23/10:48:19.662767,5286,1708685299,661915186,,2.865720510482788,-1.2551500797271729,-1.0313605070114136,1.9127023220062256,79.88895416259766,-53.021705627441406,128.634765625,-187.219970703125,-2468.60400390625,-0.011782154440879822,-0.6955151557922363,-0.05567512661218643,0.7162542343139648,44.160762786865234,-22.311840057373047,-2472.284912109375,-0.6433902978897095,0.024518180638551712,-0.7593941688537598,0.09363870322704315
2024/02/23/10:48:19.712542,5287,1708685299,711869812,,2.9313578605651855,-1.3634998798370361,-1.0441584587097168,6.797850131988525,71.76948547363281,-53.566741943359375,128.63621520996094,-187.22650146484375,-2468.6806640625,-0.011537609621882439,-0.6951578259468079,-0.05593937635421753,0.7165844440460205,44.13234329223633,-22.30740737915039,-2472.073486328125,-0.643787145614624,0.023801622912287712,-0.7591714859008789,0.0928991511464119
2024/02/23/10:48:19.761514,5288,1708685299,760812852,,2.920990467071533,-1.4050341844558716,-0.9868415594100952,5.002456188201904,74.4184341430664,-53.428688049316406,128.63604736328125,-187.21905517578125,-2468.504150390625,-0.012544889003038406,-0.6958936452865601,-0.05483979359269142,0.7159379720687866,44.112125396728516,-22.269241333007812,-2471.58447265625,-0.6454700827598572,0.024367831647396088,-0.7577126026153564,0.09298482537269592
2024/02/23/10:48:19.811277,5289,1708685299,810597207,,2.9102578163146973,-1.3279751539230347,-1.0949071645736694,6.7117228507995605,74.30111694335938,-53.38746643066406,128.64321899414062,-187.2205352783203,-2468.6318359375,-0.012115572579205036,-0.6952437162399292,-0.05537884309887886,0.7165350914001465,44.0955696105957,-22.262216567993164,-2471.4912109375,-0.6455067992210388,0.02524309791624546,-0.7575076818466187,0.09415910392999649
2024/02/23/10:48:19.861711,5290,1708685299,861002877,,2.976320266723633,-1.297288417816162,-1.2772372961044312,16.392356872558594,64.8958969116211,-54.45345687866211,128.64234924316406,-187.2211151123047,-2468.574462890625,-0.012028327211737633,-0.6955949664115906,-0.05537833645939827,0.7161955833435059,44.117889404296875,-22.51592254638672,-2471.705078125,-0.6438392400741577,0.02395709604024887,-0.7589209079742432,0.09453117847442627
2024/02/23/10:48:19.911162,5291,1708685299,910577895,,3.094484806060791,-1.4867817163467407,-1.0407073497772217,14.151766777038574,63.36878967285156,-56.16618347167969,128.64085388183594,-187.21788024902344,-2468.616455078125,-0.012433050200343132,-0.6956048011779785,-0.055017486214637756,0.716206967830658,44.21658706665039,-22.889781951904297,-2471.723388671875,-0.6436386108398438,0.021102163940668106,-0.7591786980628967,0.09450826048851013
2024/02/23/10:48:19.960657,5292,1708685299,960056261,,3.024752378463745,-1.4842209815979004,-1.0578628778457642,5.844288349151611,69.40828704833984,-54.887229919433594,128.64468383789062,-187.22010803222656,-2468.5654296875,-0.012378727085888386,-0.6956543326377869,-0.05511549860239029,0.7161523103713989,44.24393081665039,-22.924617767333984,-2471.27783203125,-0.6456619501113892,0.019730838015675545,-0.7576465606689453,0.09329022467136383
2024/02/23/10:48:20.011794,5293,1708685300,10804720,,3.0377449989318848,-1.4153199195861816,-1.292893409729004,10.57335376739502,62.49761199951172,-54.26546096801758,128.63180541992188,-187.22532653808594,-2468.71826171875,-0.011567431502044201,-0.6949824690818787,-0.056010615080595016,0.7167485356330872,44.15983200073242,-23.120710372924805,-2470.333740234375,-0.6478226780891418,0.019398313015699387,-0.7557834982872009,0.09349221736192703
2024/02/23/10:48:20.060969,5294,1708685300,60411758,,3.048978805541992,-1.4605169296264648,-1.2213386297225952,9.33220100402832,63.254940032958984,-57.38418960571289,128.6429443359375,-187.213134765625,-2468.42333984375,-0.012968991883099079,-0.6960942149162292,-0.054381415247917175,0.715770423412323,44.089332580566406,-23.052175521850586,-2469.458740234375,-0.6502306461334229,0.018891414627432823,-0.753869354724884,0.09232665598392487
2024/02/23/10:48:20.111437,5295,1708685300,110885149,,3.0392918586730957,-1.4929865598678589,-1.1667201519012451,6.817869663238525,65.43470764160156,-56.35044860839844,128.62808227539062,-187.22412109375,-2468.594970703125,-0.011834267526865005,-0.6953367590904236,-0.05565458536148071,0.7164281606674194,44.034915924072266,-23.18309211730957,-2468.582763671875,-0.6524189710617065,0.019391842186450958,-0.7518848180770874,0.09296578168869019
2024/02/23/10:48:20.161614,5296,1708685300,160831122,,2.9835469722747803,-1.487103819847107,-1.0560367107391357,0.04556286334991455,74.6201171875,-56.171958923339844,128.6378936767578,-187.2227020263672,-2468.591064453125,-0.01194693148136139,-0.6953957676887512,-0.05559870973229408,0.7163733243942261,43.97475051879883,-23.032573699951172,-2467.99951171875,-0.6552920937538147,0.021058974787592888,-0.749264121055603,0.09355232864618301
2024/02/23/10:48:20.211448,5297,1708685300,210805773,,2.9691901206970215,-1.37493896484375,-1.1618988513946533,2.531991720199585,76.34217834472656,-56.52540969848633,128.63092041015625,-187.2137451171875,-2468.58837890625,-0.01226785033941269,-0.695558488368988,-0.05522080138325691,0.7162391543388367,43.98373031616211,-23.073068618774414,-2468.11865234375,-0.6547003984451294,0.023307891562581062,-0.749395489692688,0.0960756465792656
2024/02/23/10:48:20.261574,5298,1708685300,260886801,,3.0421931743621826,-1.4328463077545166,-1.0246590375900269,3.061363935470581,77.26762390136719,-56.09199905395508,128.63916015625,-187.23223876953125,-2468.604736328125,-0.011866705492138863,-0.6954851150512695,-0.05573112517595291,0.7162776589393616,44.02095031738281,-23.162445068359375,-2468.835693359375,-0.6527226567268372,0.02235996164381504,-0.7512012124061584,0.0956549346446991
2024/02/23/10:48:20.311150,5299,1708685300,310641980,,3.060772180557251,-1.502744436264038,-0.8259282112121582,-4.947166919708252,84.46022033691406,-54.422218322753906,128.6336212158203,-187.2162628173828,-2468.540771484375,-0.01177351176738739,-0.6956504583358765,-0.05568564683198929,0.7161222100257874,44.14297866821289,-23.385852813720703,-2469.35302734375,-0.6514949798583984,0.021784018725156784,-0.7521899342536926,0.09638500958681107
2024/02/23/10:48:20.361399,5300,1708685300,360676046,,2.9914112091064453,-1.395154595375061,-0.947208821773529,-6.473581790924072,85.60682678222656,-52.33311462402344,128.64212036132812,-187.2167510986328,-2468.541259765625,-0.011654295958578587,-0.6957233548164368,-0.05581151321530342,0.7160434722900391,44.09598922729492,-23.184642791748047,-2469.46240234375,-0.6510192155838013,0.021413162350654602,-0.7528265118598938,0.0946979969739914
2024/02/23/10:48:20.411335,5301,1708685300,410657115,,3.0206592082977295,-1.346443772315979,-1.053434133529663,-0.44643402099609375,79.5197525024414,-52.293426513671875,128.6438751220703,-187.2174072265625,-2468.490966796875,-0.012796986848115921,-0.6958459615707397,-0.05463455617427826,0.7159956097602844,44.07475662231445,-23.10797119140625,-2469.66943359375,-0.6509262919425964,0.022065237164497375,-0.7528284192085266,0.09517068415880203
2024/02/23/10:48:20.461365,5302,1708685300,460729381,,3.060852289199829,-1.3531510829925537,-1.0682835578918457,5.3354997634887695,74.28229522705078,-53.82947540283203,128.63938903808594,-187.2209014892578,-2468.645751953125,-0.01205198559910059,-0.6952669620513916,-0.05541807413101196,0.7165105938911438,44.06418228149414,-22.846040725708008,-2469.93994140625,-0.6486741900444031,0.023632077500224113,-0.7546248435974121,0.09594091027975082
2024/02/23/10:48:20.511552,5303,1708685300,511028790,,3.0654749870300293,-1.3559093475341797,-1.071601390838623,8.823793411254883,73.152099609375,-54.19126510620117,128.67071533203125,-187.22007751464844,-2468.58935546875,-0.011711284518241882,-0.695397138595581,-0.0557328537106514,0.7163655161857605,44.04033279418945,-22.619705200195312,-2470.1044921875,-0.647533655166626,0.02538122609257698,-0.7554807066917419,0.09646173566579819
2024/02/23/10:48:20.561507,5304,1708685300,560986674,,3.081724166870117,-1.426163673400879,-0.9620531797409058,7.307204723358154,74.76386260986328,-54.76148986816406,128.65130615234375,-187.20974731445312,-2468.585693359375,-0.011796846054494381,-0.6954456567764282,-0.05569927394390106,0.7163195610046387,44.099830627441406,-22.498897552490234,-2470.06005859375,-0.6483532786369324,0.024868778884410858,-0.7549041509628296,0.0955994501709938
2024/02/23/10:48:20.611719,5305,1708685300,611240581,,3.03802752494812,-1.4451451301574707,-0.8717273473739624,0.758328914642334,81.47486877441406,-54.498722076416016,128.64186096191406,-187.20973205566406,-2468.47607421875,-0.011739585548639297,-0.6958350539207458,-0.05566002428531647,0.7159453630447388,44.14460754394531,-22.284168243408203,-2470.0439453125,-0.6495535373687744,0.0258178673684597,-0.7538171410560608,0.09577755630016327
2024/02/23/10:48:20.661622,5306,1708685300,661012239,,2.998906373977661,-1.4105045795440674,-0.9091749787330627,-1.3865089416503906,84.83370971679688,-54.09942626953125,128.6279754638672,-187.22283935546875,-2468.631103515625,-0.012990745715796947,-0.6951702237129211,-0.05455949902534485,0.7166539430618286,44.12946701049805,-22.21810531616211,-2469.955322265625,-0.650230348110199,0.02572510577738285,-0.7533174753189087,0.09513915330171585
2024/02/23/10:48:20.711725,5307,1708685300,710928522,,2.997159481048584,-1.37702214717865,-0.9512917995452881,0.40323662757873535,84.56256103515625,-54.363929748535156,128.62149047851562,-187.21078491210938,-2468.537109375,-0.01269705779850483,-0.6956579089164734,-0.05473395437002182,0.7161725163459778,44.118499755859375,-22.173341751098633,-2469.960693359375,-0.6496455669403076,0.027254866436123848,-0.7535985112190247,0.09647326171398163
2024/02/23/10:48:20.760808,5308,1708685300,760308863,,2.978440046310425,-1.421594262123108,-0.8388374447822571,-1.774794578552246,87.48499298095703,-54.94646072387695,128.6516571044922,-187.22865295410156,-2468.641357421875,-0.01267221849411726,-0.6953058838844299,-0.05480918660759926,0.7165089845657349,44.109683990478516,-22.104337692260742,-2469.863525390625,-0.6501421332359314,0.02813163585960865,-0.7530789375305176,0.09693245589733124
2024/02/23/10:48:20.811446,5309,1708685300,810950578,,2.9454126358032227,-1.424588680267334,-0.8425643444061279,-4.153373718261719,90.73992156982422,-54.072181701660156,128.6346893310547,-187.2108612060547,-2468.601318359375,-0.012792980298399925,-0.6954514980316162,-0.05467035621404648,0.7163761258125305,44.14380645751953,-22.145788192749023,-2469.708740234375,-0.6506244540214539,0.027770956978201866,-0.7527229189872742,0.09656469523906708
2024/02/23/10:48:20.861896,5310,1708685300,861298500,,2.947085380554199,-1.4355659484863281,-0.8087913393974304,-5.228692054748535,90.91968536376953,-54.83061981201172,128.64297485351562,-187.21527099609375,-2468.646484375,-0.012286203913390636,-0.6953772902488708,-0.05521451309323311,0.7164152264595032,44.168617248535156,-22.26016616821289,-2469.818115234375,-0.6503233909606934,0.027240877971053123,-0.7529303431510925,0.09712525457143784
2024/02/23/10:48:20.911680,5311,1708685300,911058342,,2.926085948944092,-1.3173890113830566,-0.9867666363716125,-1.4310295581817627,87.78956604003906,-55.04685592651367,128.62066650390625,-187.2119140625,-2468.616455078125,-0.011329228058457375,-0.6954416632652283,-0.05615745857357979,0.7162952423095703,44.13897705078125,-22.18646812438965,-2470.133056640625,-0.6487843990325928,0.02854982204735279,-0.7541035413742065,0.09793656319379807
2024/02/23/10:48:20.961035,5312,1708685300,960599407,,2.952585458755493,-1.3886547088623047,-0.8553584218025208,-1.2221585512161255,88.12384796142578,-56.864280700683594,128.6358642578125,-187.20956420898438,-2468.596923828125,-0.010931868106126785,-0.695642352104187,-0.0564558319747448,0.7160830497741699,44.16830825805664,-22.05191421508789,-2470.487060546875,-0.648323118686676,0.028982870280742645,-0.754467785358429,0.09805884212255478
2024/02/23/10:48:21.010670,5313,1708685301,10211586,,2.919682264328003,-1.4261914491653442,-0.7213608622550964,-5.831492900848389,93.80382537841797,-58.291847229003906,128.6357421875,-187.22267150878906,-2468.568603515625,-0.012192132882773876,-0.6956300735473633,-0.05530071631073952,0.716164767742157,44.2473258972168,-21.98895263671875,-2470.651123046875,-0.6482428908348083,0.029819104820489883,-0.7543735504150391,0.09905823320150375
2024/02/23/10:48:21.060403,5314,1708685301,59931156,,2.8871560096740723,-1.3105015754699707,-0.8494352102279663,-3.4291021823883057,93.41049194335938,-58.576866149902344,128.6322784423828,-187.21649169921875,-2468.63134765625,-0.01257186010479927,-0.695448637008667,-0.054922133684158325,0.7163635492324829,44.224334716796875,-21.716522216796875,-2470.873046875,-0.6472975611686707,0.03081795945763588,-0.7551789283752441,0.09879720211029053
2024/02/23/10:48:21.110734,5315,1708685301,110224498,,2.9434850215911865,-1.3598551750183105,-0.7795007824897766,-0.5198860764503479,91.07337188720703,-59.394901275634766,128.6243896484375,-187.21490478515625,-2468.643798828125,-0.012876208871603012,-0.6953243613243103,-0.05455239862203598,0.7165070176124573,44.254615783691406,-21.78388023376465,-2471.21142578125,-0.6460456252098083,0.03126073256134987,-0.756106436252594,0.0997537225484848
2024/02/23/10:48:21.161550,5316,1708685301,161016710,,2.920741558074951,-1.3617396354675293,-0.6931516528129578,-4.118777275085449,95.89268493652344,-59.63113784790039,128.62594604492188,-187.21133422851562,-2468.5263671875,-0.011927587911486626,-0.6955761313438416,-0.05549952760338783,0.7162062525749207,44.2835693359375,-21.714780807495117,-2471.405029296875,-0.646621584892273,0.03197653219103813,-0.7555251121520996,0.1001991406083107
2024/02/23/10:48:21.210945,5317,1708685301,210440182,,2.8996918201446533,-1.3493702411651611,-0.6661283373832703,-5.995787143707275,98.51620483398438,-59.52508544921875,128.63262939453125,-187.21533203125,-2468.590087890625,-0.012275801040232182,-0.695338785648346,-0.05516130104660988,0.716456949710846,44.28920364379883,-21.62711524963379,-2471.36376953125,-0.6471990346908569,0.03214648738503456,-0.7550797462463379,0.09977288544178009
2024/02/23/10:48:21.261399,5318,1708685301,260903717,,2.8657987117767334,-1.3183902502059937,-0.7214521169662476,-6.559206962585449,98.94247436523438,-57.82731246948242,128.62738037109375,-187.2108154296875,-2468.599609375,-0.012500056065618992,-0.6952345967292786,-0.05500434339046478,0.7165662050247192,44.30479431152344,-21.31813621520996,-2471.618408203125,-0.6459317803382874,0.03210211172699928,-0.7564031481742859,0.09795849770307541
2024/02/23/10:48:21.311093,5319,1708685301,310395762,,2.8999221324920654,-1.310847282409668,-0.8186486959457397,-3.808816432952881,94.61979675292969,-56.37396240234375,128.63864135742188,-187.22227478027344,-2468.5654296875,-0.013248979113996029,-0.6956402659416199,-0.0541655458509922,0.716222882270813,44.29410934448242,-21.20730972290039,-2471.60009765625,-0.6457242369651794,0.03153644874691963,-0.7567216753959656,0.09704603999853134
2024/02/23/10:48:21.360480,5320,1708685301,359987659,,2.922044515609741,-1.3534513711929321,-0.7661396861076355,-4.51174783706665,93.84154510498047,-56.17792892456055,128.63954162597656,-187.212158203125,-2468.5380859375,-0.011998782865703106,-0.6957933902740479,-0.05539066717028618,0.7160024046897888,44.31574630737305,-21.1619930267334,-2471.572509765625,-0.6464316248893738,0.0321410708129406,-0.756035566329956,0.09748511761426926
2024/02/23/10:48:21.410953,5321,1708685301,410377860,,2.896451950073242,-1.3799182176589966,-0.7126896977424622,-8.731539726257324,96.5948486328125,-55.542144775390625,128.63198852539062,-187.2123565673828,-2468.58251953125,-0.011885412968695164,-0.6954993605613708,-0.055566515773534775,0.7162762880325317,44.31419372558594,-21.000438690185547,-2471.4716796875,-0.6464574933052063,0.03158627077937126,-0.7562286257743835,0.095986008644104
2024/02/23/10:48:21.460412,5322,1708685301,459934630,,2.855557680130005,-1.3547227382659912,-0.7737806439399719,-9.203143119812012,97.45281982421875,-54.71854019165039,128.62852478027344,-187.22645568847656,-2468.6640625,-0.013080709613859653,-0.6953155398368835,-0.05442284047603607,0.7165217399597168,44.30811309814453,-21.057254791259766,-2471.2509765625,-0.6472130417823792,0.03129798173904419,-0.7556143999099731,0.09582601487636566
2024/02/23/10:48:21.510752,5323,1708685301,510217634,,2.8504929542541504,-1.3398209810256958,-0.8772864937782288,-6.922524929046631,95.44091033935547,-54.06262969970703,128.63162231445312,-187.21829223632812,-2468.6279296875,-0.012746789492666721,-0.6953617334365845,-0.05475100874900818,0.7164579033851624,44.26287841796875,-20.94365882873535,-2471.0234375,-0.6479653120040894,0.03211222589015961,-0.7549548149108887,0.0956711694598198
2024/02/23/10:48:21.560527,5324,1708685301,560024176,,2.8827621936798096,-1.3570085763931274,-0.9142600893974304,-4.764098644256592,92.50899505615234,-53.859439849853516,128.62840270996094,-187.2181396484375,-2468.531494140625,-0.013081402517855167,-0.6959346532821655,-0.05429305136203766,0.7159302234649658,44.252384185791016,-21.075279235839844,-2470.9052734375,-0.6480234861373901,0.03151772916316986,-0.7549024820327759,0.09588766098022461
2024/02/23/10:48:21.610574,5325,1708685301,610108254,,2.891962766647339,-1.3818455934524536,-0.880163848400116,-6.374577045440674,91.71961975097656,-53.95938491821289,128.629638671875,-187.21484375,-2468.5849609375,-0.012757930904626846,-0.6954999566078186,-0.05469159036874771,0.7163280248641968,44.2576904296875,-21.09876251220703,-2470.93359375,-0.647733211517334,0.030836505815386772,-0.755223274230957,0.09554347395896912
2024/02/23/10:48:21.661585,5326,1708685301,661028035,,2.8975765705108643,-1.3680509328842163,-0.8897867202758789,-6.356377601623535,91.06246185302734,-54.11688232421875,128.63247680664062,-187.21334838867188,-2468.662841796875,-0.01276236493140459,-0.695444643497467,-0.05463270843029022,0.7163861393928528,44.27275466918945,-21.062654495239258,-2471.07958984375,-0.6477403044700623,0.030451033264398575,-0.7552645206451416,0.09529273211956024
2024/02/23/10:48:21.710413,5327,1708685301,709838139,,2.915107488632202,-1.3440594673156738,-0.9501786231994629,-3.806419849395752,87.7029800415039,-54.8071174621582,128.62435913085938,-187.21951293945312,-2468.617919921875,-0.012275739572942257,-0.6953681111335754,-0.055233102291822433,0.7164229154586792,44.26947021484375,-20.866701126098633,-2471.215576171875,-0.6469570398330688,0.029862549155950546,-0.756136953830719,0.0938708484172821
2024/02/23/10:48:21.760798,5328,1708685301,760296815,,2.942969799041748,-1.3672008514404297,-0.8893638253211975,-3.3298606872558594,86.28858184814453,-54.9759407043457,128.62794494628906,-187.22315979003906,-2468.569580078125,-0.012550718151032925,-0.6957336664199829,-0.05490805581212044,0.7160881757736206,44.28473663330078,-20.840280532836914,-2471.417236328125,-0.6464822888374329,0.028767654672265053,-0.7567147612571716,0.09282149374485016
2024/02/23/10:48:21.810914,5329,1708685301,810229993,,2.9393937587738037,-1.3734233379364014,-0.8477173447608948,-4.9881367683410645,88.06615447998047,-55.0373649597168,128.63430786132812,-187.20106506347656,-2468.50439453125,-0.012340305373072624,-0.6958374381065369,-0.05503549799323082,0.7159811854362488,44.31285095214844,-20.799457550048828,-2471.607421875,-0.6452650427818298,0.02996455878019333,-0.757562518119812,0.0939904972910881
2024/02/23/10:48:21.861498,5330,1708685301,860890136,,2.92394757270813,-1.3332946300506592,-0.9300873279571533,-3.2537355422973633,86.7634506225586,-55.13324737548828,128.63975524902344,-187.21873474121094,-2468.548095703125,-0.011853601783514023,-0.6956544518470764,-0.05560382828116417,0.7161232829093933,44.28788375854492,-20.760997772216797,-2471.48486328125,-0.6461126208305359,0.030416017398238182,-0.7567918300628662,0.09423036128282547
2024/02/23/10:48:21.910922,5331,1708685301,910394322,,2.9535036087036133,-1.3377065658569336,-0.95542973279953,0.14977896213531494,83.73660278320312,-55.6556396484375,128.63653564453125,-187.2205810546875,-2468.674560546875,-0.0120507488027215,-0.6950839757919312,-0.0555131621658802,0.7166807651519775,44.29829406738281,-20.838037490844727,-2471.63037109375,-0.6456072330474854,0.030306613072752953,-0.7571741342544556,0.09465813636779785
2024/02/23/10:48:21.961434,5332,1708685301,960766756,,2.9644103050231934,-1.3911538124084473,-0.8496266603469849,-2.2913942337036133,85.6897201538086,-55.76881790161133,128.63668823242188,-187.21762084960938,-2468.522705078125,-0.013149936683475971,-0.6957027912139893,-0.054330889135599136,0.7161514163017273,44.32954788208008,-20.77457618713379,-2471.787109375,-0.6449958086013794,0.03091949038207531,-0.7576211094856262,0.0950508788228035
2024/02/23/10:48:22.010900,5333,1708685302,10283423,,2.9347517490386963,-1.3565776348114014,-0.8450304865837097,-3.7300214767456055,88.18711853027344,-55.67512893676758,128.64105224609375,-187.21409606933594,-2468.5576171875,-0.011990511789917946,-0.6955291032791138,-0.05548328533768654,0.7162520885467529,44.34937286376953,-20.747827529907227,-2471.8984375,-0.6447705626487732,0.031198740005493164,-0.7577835321426392,0.09519278258085251
2024/02/23/10:48:22.060490,5334,1708685302,59960656,,2.9334001541137695,-1.348143458366394,-0.8594623804092407,-2.5223329067230225,88.72055053710938,-55.897342681884766,128.63070678710938,-187.21551513671875,-2468.47412109375,-0.012911560013890266,-0.6960394382476807,-0.054517604410648346,0.7158144116401672,44.40584182739258,-20.702720642089844,-2472.1025390625,-0.6447693705558777,0.030724171549081802,-0.757874071598053,0.09463261812925339
2024/02/23/10:48:22.111002,5335,1708685302,110205413,,2.9285218715667725,-1.3598028421401978,-0.8607276082038879,-4.2054643630981445,90.48859405517578,-55.89787673950195,128.6436767578125,-187.2122344970703,-2468.55517578125,-0.01251295767724514,-0.6957684755325317,-0.054885972291231155,0.7160566449165344,44.426551818847656,-20.342735290527344,-2472.18896484375,-0.6448178291320801,0.032072730362415314,-0.7578421831130981,0.09410887211561203
2024/02/23/10:48:22.160625,5336,1708685302,160080196,,2.917914867401123,-1.346786379814148,-0.836029589176178,-4.680123805999756,92.61043548583984,-55.524497985839844,128.6347198486328,-187.21829223632812,-2468.605224609375,-0.013457171618938446,-0.6955184936523438,-0.054028261452913284,0.7163476347923279,44.46588897705078,-20.578691482543945,-2472.292236328125,-0.6454063653945923,0.03226130083203316,-0.7571344971656799,0.09569260478019714
