time,.header.seq,.header.stamp.secs,.header.stamp.nsecs,,.fX.data,.fY.data,.fZ.data,.mX.data,.mY.data,.mZ.data,.polaris.position.x,.polaris.position.y,.polaris.position.z,.polaris.orientation.x,.polaris.orientation.y,.polaris.orientation.z,.polaris.orientation.w,.polaristool2.position.x,.polaristool2.position.y,.polaristool2.position.z,.polaristool2.orientation.x,.polaristool2.orientation.y,.polaristool2.orientation.z,.polaristool2.orientation.w
2024/02/23/10:52:06.821377,9082,1708685526,820220099,,2.83289527893066,-1.27114045619965,-0.702700912952423,-1.66580665111542,92.1706848144531,-53.7623519897461,129.80712890625,-187.034591674805,-2468.54858398437,-0.012131860479713,-0.694955110549927,-0.055370662361384,0.716815412044525,43.6972389221191,-31.2142429351807,-2493.25317382812,-0.62264484167099,-0.003050581319258,-0.775289118289948,0.105975545942783
2024/02/23/10:52:06.870356,9083,1708685526,869552000,,2.83599948883057,-1.25762033462524,-0.731714725494385,-1.5005818605423,92.0773468017578,-52.4187774658203,129.829742431641,-187.036041259766,-2468.3916015625,-0.011737409979105,-0.695530354976654,-0.05563498288393,0.716243326663971,43.6868782043457,-31.1658210754395,-2493.23120117187,-0.623210668563843,-0.002660749247298,-0.774827003479004,0.106039874255657
2024/02/23/10:52:06.920768,9084,1708685526,919947975,,2.8479061126709,-1.24752068519592,-0.739867269992828,-0.739201784133911,91.5800323486328,-51.2384223937988,129.849761962891,-187.047103881836,-2468.560546875,-0.011985642835498,-0.695164799690247,-0.055443990975618,0.716608822345733,43.7326850891113,-31.051965713501,-2493.44311523437,-0.62170946598053,-0.002495981054381,-0.776066303253174,0.10579314827919
2024/02/23/10:52:06.970892,9085,1708685526,970040960,,2.87643241882324,-1.25929605960846,-0.7060786485672,-0.254784345626831,90.3959121704102,-50.3599128723145,129.793762207031,-187.028533935547,-2468.42211914062,-0.012421298772097,-0.695395529270172,-0.055039182305336,0.716408729553223,43.7053833007812,-31.0395545959473,-2493.61547851562,-0.621612012386322,-0.001866286853328,-0.776066720485687,0.106374487280846
2024/02/23/10:52:07.020787,9086,1708685527,19908567,,2.88588237762451,-1.26465940475464,-0.6933513879776,-0.032476425170899,90.8552856445312,-50.1949005126953,129.860534667969,-187.065795898438,-2468.49340820313,-0.0133685041219,-0.695478677749634,-0.054043523967266,0.716386735439301,43.8118324279785,-31.0823745727539,-2493.82885742187,-0.620587527751923,-0.002517244080082,-0.776916325092316,0.106140531599522
2024/02/23/10:52:07.069958,9087,1708685527,69343069,,2.87273669242859,-1.24709832668304,-0.692936658859253,-0.982849597930908,92.4382629394531,-50.5397987365723,129.806457519531,-187.029861450195,-2468.49462890625,-0.012332243844867,-0.695264995098114,-0.055104658007622,0.716531932353973,43.7782135009766,-31.099609375,-2493.95092773437,-0.621025383472443,-0.001726920134388,-0.776408433914185,0.107305161654949
2024/02/23/10:52:07.120699,9088,1708685527,119776236,,2.89408564567566,-1.23909306526184,-0.720194220542908,0.906503677368164,91.0648956298828,-51.1834564208984,129.82389831543,-187.039794921875,-2468.49731445312,-0.01298794709146,-0.695412993431091,-0.054395958781242,0.716430842876434,43.8311958312988,-31.0999584197998,-2494.20336914062,-0.620568871498108,-0.002163418103009,-0.776850998401642,0.106733992695808
2024/02/23/10:52:07.170759,9089,1708685527,169793440,,2.89426875114441,-1.26880371570587,-0.673660516738892,-0.619672298431397,93.0030975341797,-50.9988975524902,129.857574462891,-187.043045043945,-2468.546875,-0.013497766107321,-0.69518119096756,-0.053942319005728,0.716680645942688,43.9143486022949,-31.2271327972412,-2494.32421875,-0.621088981628418,-0.003678126027808,-0.776531338691711,0.105990841984749
2024/02/23/10:52:07.219904,9090,1708685527,219120892,,2.88107562065125,-1.24654054641724,-0.69716602563858,-2.20079660415649,94.2678375244141,-50.4827156066895,129.760284423828,-187.00358581543,-2468.4208984375,-0.012079318985343,-0.695583999156952,-0.055258102715015,0.716214716434479,43.8021659851074,-31.1955947875977,-2494.34545898437,-0.620938360691071,-0.003138535423204,-0.776589334011078,0.1064647808671
2024/02/23/10:52:07.270601,9091,1708685527,269882654,,2.91308403015137,-1.23256325721741,-0.772684693336487,0.892431020736694,90.7669677734375,-50.6528472900391,129.853652954102,-187.033248901367,-2468.38256835938,-0.012566205114126,-0.695867300033569,-0.054759673774242,0.715969383716583,43.8841400146484,-31.1658153533936,-2494.31469726562,-0.620813131332397,-0.002811406506225,-0.77668297290802,0.106521062552929
2024/02/23/10:52:07.319103,9092,1708685527,318765411,,2.91076016426086,-1.29294323921204,-0.693085849285126,-1.04174828529358,91.6418380737305,-50.1912689208984,129.773544311523,-187.015838623047,-2468.45727539062,-0.0119470031932,-0.695664405822754,-0.055438674986363,0.716124892234802,43.7976188659668,-31.1352005004883,-2494.13720703125,-0.620168268680573,-0.003140480956063,-0.777256488800049,0.106083706021309
2024/02/23/10:52:07.370676,9093,1708685527,369816392,,2.87350869178772,-1.26641726493835,-0.743241012096405,-2.11172103881836,91.7487564086914,-49.9106292724609,129.864196777344,-187.028564453125,-2468.47509765625,-0.01245207991451,-0.695411920547485,-0.054938241839409,0.716400027275085,43.8451614379883,-31.1633186340332,-2493.8740234375,-0.620280802249908,-0.003225175430998,-0.777161836624146,0.106116645038128
2024/02/23/10:52:07.419170,9094,1708685527,418850639,,2.88503527641296,-1.26743948459625,-0.791206896305084,-0.036740303039551,88.6307067871094,-50.2541465759277,129.780242919922,-187.004821777344,-2468.40209960938,-0.012377771548927,-0.695578575134277,-0.055026855319738,0.716232657432556,43.7517318725586,-31.1926517486572,-2493.69775390625,-0.620928704738617,-0.004234996624291,-0.776752293109894,0.105287633836269
2024/02/23/10:52:07.470479,9095,1708685527,469762662,,2.89949488639832,-1.31315314769745,-0.754812121391296,-0.942738056182861,87.7365112304688,-49.8689079284668,129.880096435547,-187.004425048828,-2468.46826171875,-0.012195359915495,-0.695482552051544,-0.055071379989386,0.716325640678406,43.8216743469238,-31.228588104248,-2493.482421875,-0.621501803398132,-0.004498771391809,-0.776298761367798,0.105240181088448
2024/02/23/10:52:07.519906,9096,1708685527,519323519,,2.88931012153625,-1.28814733028412,-0.80830717086792,-0.606497526168823,86.5381851196289,-50.0025978088379,129.728530883789,-187.011291503906,-2468.6435546875,-0.011663150973618,-0.694864988327026,-0.055844116955996,0.71687376499176,43.6591873168945,-31.1929302215576,-2493.45336914062,-0.621494054794312,-0.004463178105652,-0.776343524456024,0.104956798255444
2024/02/23/10:52:07.570248,9097,1708685527,569476221,,2.90857696533203,-1.2987939119339,-0.808465242385864,0.486884117126465,85.1334686279297,-50.2086563110352,129.850692749023,-187.039886474609,-2468.39135742188,-0.013019039295614,-0.695707201957703,-0.054355625063181,0.716147661209106,43.7833595275879,-31.2399787902832,-2493.41577148438,-0.621669590473175,-0.00421420764178,-0.776149094104767,0.105364710092545
2024/02/23/10:52:07.620316,9098,1708685527,619346724,,2.90114593505859,-1.32839071750641,-0.749989032745361,-1.25923752784729,86.6337203979492,-50.032527923584,129.77424621582,-187.055252075195,-2468.43359375,-0.012597307562828,-0.695630311965942,-0.054823387414217,0.716194272041321,43.6960334777832,-31.2257537841797,-2493.36572265625,-0.622528731822968,-0.004309313837439,-0.775512397289276,0.104975856840611
2024/02/23/10:52:07.669847,9099,1708685527,669297878,,2.88083934783936,-1.31932663917542,-0.762081503868103,-2.5859911441803,88.1974029541016,-49.615119934082,129.871063232422,-187.061935424805,-2468.48217773437,-0.012460515834391,-0.695489704608917,-0.054857842624188,0.716330528259277,43.7900543212891,-31.1907386779785,-2493.37963867187,-0.621854662895203,-0.004605885595083,-0.77612966299057,0.104394912719727
2024/02/23/10:52:07.720436,9100,1708685527,719405952,,2.87566733360291,-1.30303335189819,-0.770577609539032,-1.88250994682312,88.2404708862305,-49.6786880493164,129.771545410156,-187.027114868164,-2468.44653320312,-0.012178330682218,-0.695568919181824,-0.055203292518854,0.716231942176819,43.6779441833496,-31.0491313934326,-2493.37353515625,-0.622404456138611,-0.003808192443103,-0.775669813156128,0.104568101465702
2024/02/23/10:52:07.769741,9101,1708685527,769144371,,2.87575626373291,-1.3194522857666,-0.734784483909607,-2.74295568466187,89.4309158325195,-49.4825668334961,129.849792480469,-187.054016113281,-2468.46801757812,-0.012545440346003,-0.695533812046051,-0.054847333580256,0.716287016868591,43.7367630004883,-30.9554672241211,-2493.2880859375,-0.622688412666321,-0.002525721443817,-0.775373578071594,0.105112172663212
2024/02/23/10:52:07.820629,9102,1708685527,820042642,,2.85809350013733,-1.30494046211243,-0.71662050485611,-3.32601499557495,90.9513626098633,-48.8591117858887,129.777801513672,-187.055618286133,-2468.47387695313,-0.012545911595225,-0.695318579673767,-0.054930340498686,0.716489553451538,43.6801528930664,-30.8872299194336,-2493.4287109375,-0.622743606567383,-0.002194256987423,-0.77532821893692,0.105127260088921
2024/02/23/10:52:07.869597,9103,1708685527,869025719,,2.84486818313599,-1.29399716854095,-0.695279717445374,-3.84861469268799,92.4323196411133,-48.4547882080078,129.855072021484,-187.058547973633,-2468.4765625,-0.013134161010385,-0.695644319057465,-0.054199047386646,0.7162184715271,43.7750129699707,-30.8585796356201,-2493.7412109375,-0.62106728553772,-0.002131605288014,-0.776690363883972,0.104990392923355
2024/02/23/10:52:07.920855,9104,1708685527,920239040,,2.85127735137939,-1.26093339920044,-0.734674513339996,-2.30305123329163,92.1291427612305,-48.3985061645508,129.78742980957,-187.043243408203,-2468.47607421875,-0.011900034733117,-0.695563435554504,-0.055507823824883,0.716218411922455,43.7737808227539,-30.9586486816406,-2494.01928710938,-0.620845317840576,-0.002072591800243,-0.776740252971649,0.105930648744106
2024/02/23/10:52:07.969149,9105,1708685527,968873396,,2.87298727035522,-1.29862356185913,-0.650619685649872,-3.31171274185181,93.3373870849609,-48.6194801330566,129.841003417969,-187.039489746094,-2468.494140625,-0.012466543354094,-0.695397555828095,-0.054934896528721,0.716414034366608,43.7908401489258,-30.7500953674316,-2493.95849609375,-0.621108949184418,-0.001191474380903,-0.776590406894684,0.10549708455801
2024/02/23/10:52:08.021081,9106,1708685528,20506517,,2.84387469291687,-1.29937469959259,-0.618381857872009,-6.02337741851807,96.2731628417969,-48.0260848999023,129.796234130859,-187.023620605469,-2468.44189453125,-0.011552243493497,-0.695459306240082,-0.05585990101099,0.716297805309296,43.6890182495117,-30.6642837524414,-2493.88427734375,-0.622010290622711,-0.000367216474842,-0.775833964347839,0.105757646262646
2024/02/23/10:52:08.069481,9107,1708685528,68877430,,2.81602668762207,-1.24188029766083,-0.674092710018158,-4.65870380401611,96.4220886230469,-47.5418930053711,129.830688476563,-187.029113769531,-2468.43823242187,-0.012389034964144,-0.695767402648926,-0.054954275488854,0.716054618358612,43.7206687927246,-30.6142559051514,-2493.90844726563,-0.621381461620331,-1.22660585475387E-05,-0.77627557516098,0.106213375926018
2024/02/23/10:52:08.120574,9108,1708685528,119822802,,2.83432936668396,-1.19758820533752,-0.732223868370056,-0.503790140151978,93.1882781982422,-48.4211578369141,129.794158935547,-187.005477905273,-2468.37280273437,-0.012609438039363,-0.696057140827179,-0.054592937231064,0.715796768665314,43.7358627319336,-30.6783676147461,-2494.16772460938,-0.620503306388855,0.001162293716334,-0.776731908321381,0.107990093529224
2024/02/23/10:52:08.170043,9109,1708685528,169252205,,2.88314509391785,-1.21601593494415,-0.687114715576172,1.5332293510437,91.8802261352539,-50.2123565673828,129.850158691406,-187.045837402344,-2468.4814453125,-0.012728015892208,-0.695572435855866,-0.054672885686159,0.71625953912735,43.7998390197754,-30.7282009124756,-2494.19287109375,-0.621267735958099,0.000735003384762,-0.77619993686676,0.107422396540642
2024/02/23/10:52:08.219751,9110,1708685528,219354342,,2.86270642280579,-1.269047498703,-0.615594029426575,-1.33445763587952,95.7053070068359,-49.9182968139648,129.769958496094,-187.017623901367,-2468.4931640625,-0.01197602134198,-0.695609390735626,-0.055394485592842,0.71618127822876,43.7312316894531,-30.6331081390381,-2494.205078125,-0.621248364448547,-7.4741015851032E-05,-0.776398956775665,0.106090389192104
2024/02/23/10:52:08.270003,9111,1708685528,269368130,,2.81076502799988,-1.26932346820831,-0.564663648605347,-5.87646341323853,100.455978393555,-49.3224182128906,129.837799072266,-187.023529052734,-2468.44946289062,-0.011971345171332,-0.695748209953308,-0.05530520901084,0.716053366661072,43.7844314575195,-30.5448265075684,-2494.11669921875,-0.621413290500641,0.001307653379627,-0.77612841129303,0.107090905308723
2024/02/23/10:52:08.320729,9112,1708685528,320126215,,2.7711009979248,-1.24606490135193,-0.568391084671021,-7.37007093429565,102.454971313477,-49.7547416687012,129.787017822266,-187.025466918945,-2468.39721679687,-0.012180919758976,-0.69587641954422,-0.055152803659439,0.71593701839447,43.7391166687012,-30.6989784240723,-2494.00732421875,-0.621962249279022,0.000502153474372,-0.775684416294098,0.107127852737904
2024/02/23/10:52:08.370154,9113,1708685528,369596651,,2.75171494483948,-1.2323659658432,-0.578378438949585,-8.01114273071289,103.344581604004,-51.0000610351563,129.838012695313,-187.039367675781,-2468.50708007812,-0.01184012927115,-0.69527542591095,-0.055572263896465,0.716493964195251,43.7860412597656,-30.7197074890137,-2493.935546875,-0.621901750564575,-0.000574536621571,-0.775874376296997,0.106098584830761
2024/02/23/10:52:08.420412,9114,1708685528,419835653,,2.75949549674988,-1.24775004386902,-0.596219539642334,-7.68007707595825,102.037353515625,-51.0720252990723,129.803588867188,-187.032165527344,-2468.4345703125,-0.012228747829795,-0.695757210254669,-0.055089361965656,0.716056942939758,43.795280456543,-30.8766994476318,-2494.00219726563,-0.621223628520966,-0.001360174850561,-0.776387631893158,0.106308847665787
2024/02/23/10:52:08.470823,9115,1708685528,470158312,,2.76119494438171,-1.27839076519012,-0.580695033073425,-8.74186229705811,101.897483825684,-51.2223968505859,129.850891113281,-187.0498046875,-2468.44750976562,-0.01301980484277,-0.695537626743317,-0.054379738867283,0.716310501098633,43.8143539428711,-30.8308773040771,-2494.056640625,-0.621469795703888,-0.000605992798228,-0.776092946529388,0.107026405632496
2024/02/23/10:52:08.520120,9116,1708685528,519443195,,2.74483513832092,-1.23011314868927,-0.622654318809509,-7.86293935775757,100.846885681152,-52.3940124511719,129.796585083008,-187.037261962891,-2468.52124023437,-0.012499632313848,-0.695404827594757,-0.054927453398705,0.716406941413879,43.7967338562012,-30.9518089294434,-2494.17749023437,-0.620880007743835,-0.00077799486462,-0.776450455188751,0.107852295041084
2024/02/23/10:52:08.570978,9117,1708685528,570355528,,2.78934097290039,-1.21854686737061,-0.634151875972748,-4.41106367111206,97.7497406005859,-53.6592063903809,129.863693237305,-187.055404663086,-2468.478515625,-0.013404230587185,-0.695387423038483,-0.053999025374651,0.716478049755096,43.8731307983398,-30.9094314575195,-2494.38647460937,-0.619896829128265,-0.001019481453113,-0.777300775051117,0.107379525899887
2024/02/23/10:52:08.618967,9118,1708685528,618641641,,2.81465196609497,-1.20961081981659,-0.657647848129272,-2.15515232086182,95.3667907714844,-54.4128646850586,129.780181884766,-187.037704467773,-2468.44555664063,-0.013274473138154,-0.695558428764343,-0.054085224866867,0.716307938098908,43.8231430053711,-31.0552158355713,-2494.40942382813,-0.620040655136108,-0.001872330904007,-0.77720057964325,0.107262924313545
2024/02/23/10:52:08.670733,9119,1708685528,670130028,,2.84569549560547,-1.26016867160797,-0.61568284034729,-1.9707338809967,94.7855224609375,-54.0428276062012,129.867172241211,-187.048767089844,-2468.4814453125,-0.011888469569385,-0.695721447467804,-0.05543402209878,0.716070771217346,43.8914489746094,-30.9760360717773,-2494.27783203125,-0.620229303836823,-0.001958657754585,-0.777158319950104,0.106474086642265
2024/02/23/10:52:08.719345,9120,1708685528,718946184,,2.80784344673157,-1.28807532787323,-0.570163190364838,-5.33603715896606,97.8056564331055,-53.4318733215332,129.793426513672,-187.035995483398,-2468.45483398437,-0.012794100679457,-0.695589482784271,-0.054573066532612,0.716249525547028,43.7264747619629,-30.9073925018311,-2494.16235351562,-0.621403515338898,-0.00135412835516,-0.776200950145721,0.106620401144028
2024/02/23/10:52:08.771159,9121,1708685528,770447187,,2.75945162773132,-1.21894407272339,-0.665753662586212,-4.54730701446533,98.0827865600586,-53.204517364502,129.83757019043,-187.047744750977,-2468.5537109375,-0.012598736211658,-0.695348620414734,-0.054751817137003,0.71647322177887,43.7947425842285,-30.987247467041,-2494.23291015625,-0.620572626590729,-0.001710719545372,-0.776864528656006,0.106621697545052
2024/02/23/10:52:08.820326,9122,1708685528,819660214,,2.80400061607361,-1.24311602115631,-0.631788671016693,-2.40318989753723,96.2181549072266,-53.7623863220215,129.817108154297,-187.051284790039,-2468.48217773437,-0.012822130694985,-0.695578932762146,-0.054523587226868,0.716262996196747,43.801685333252,-30.8952598571777,-2494.46142578125,-0.620355010032654,-0.001032113097608,-0.776995241641998,0.106943793594837
2024/02/23/10:52:08.871020,9123,1708685528,870312774,,2.80701279640198,-1.23849976062775,-0.61301064491272,-3.28436803817749,97.3206329345703,-53.7400283813477,129.795867919922,-187.022201538086,-2468.43408203125,-0.012868722900748,-0.695679605007172,-0.054384142160416,0.716175019741058,43.819263458252,-31.0732421875,-2494.64282226563,-0.619823157787323,-0.001982654212043,-0.777415573596954,0.106959916651249
2024/02/23/10:52:08.920523,9124,1708685528,919825832,,2.81796550750732,-1.21497130393982,-0.658814132213593,-1.93288338184357,97.0146789550781,-53.1558685302734,129.824295043945,-187.0419921875,-2468.39770507813,-0.012661054730415,-0.695916295051575,-0.054663881659508,0.715927422046661,43.867374420166,-31.1167507171631,-2494.6484375,-0.619703769683838,-0.001684124115855,-0.777455449104309,0.107365801930428
2024/02/23/10:52:08.971020,9125,1708685528,970389047,,2.8356876373291,-1.23457419872284,-0.661388754844666,-1.41301810741425,95.7957229614258,-53.1458206176758,129.829055786133,-187.040771484375,-2468.44677734375,-0.011770998127759,-0.695520758628845,-0.055599372833967,0.716254889965057,43.8580665588379,-31.1820182800293,-2494.57641601562,-0.619958877563477,-0.002349631860852,-0.777323544025421,0.106834389269352
2024/02/23/10:52:09.020544,9126,1708685529,19824543,,2.83366131782532,-1.2406280040741,-0.710357487201691,-0.9588463306427,94.9716491699219,-52.4133949279785,129.809326171875,-187.0400390625,-2468.44750976562,-0.012856383807957,-0.69571578502655,-0.054507937282324,0.716130673885345,43.7996940612793,-31.221097946167,-2494.29345703125,-0.620598793029785,-0.002682895865291,-0.776824712753296,0.106739357113838
2024/02/23/10:52:09.070955,9127,1708685529,70299248,,2.83293390274048,-1.2350994348526,-0.783849835395813,1.2314190864563,92.2967224121094,-52.4112358093262,129.837890625,-187.048110961914,-2468.44970703125,-0.012160192243755,-0.695594549179077,-0.055240739136934,0.716204464435577,43.7668151855469,-31.0702247619629,-2494.10205078125,-0.620799958705902,-0.002937243320048,-0.776826679706574,0.105541959404945
2024/02/23/10:52:09.120737,9128,1708685529,119919758,,2.84103608131409,-1.24744510650635,-0.782732605934143,1.82033228874207,89.9469680786133,-52.5793533325195,129.799468994141,-187.045669555664,-2468.4892578125,-0.012444485910237,-0.695499360561371,-0.05496820807457,0.716312944889069,43.709228515625,-30.9944190979004,-2493.92529296875,-0.62206643819809,-0.002250629942864,-0.775798857212067,0.105661779642105
2024/02/23/10:52:09.170945,9129,1708685529,170231870,,2.82110071182251,-1.29256939888,-0.706010222434998,-1.52704298496246,91.9355773925781,-52.0416641235352,129.841644287109,-187.059860229492,-2468.54541015625,-0.011800602078438,-0.695261359214783,-0.055712927132845,0.716497302055359,43.7617721557617,-30.9928073883057,-2493.95068359375,-0.621988415718079,-0.002800117945299,-0.775926649570465,0.105168424546719
2024/02/23/10:52:09.220425,9130,1708685529,219810248,,2.77929377555847,-1.25876247882843,-0.71800684928894,-4.0090799331665,94.9208908081055,-51.8725547790527,129.799926757813,-187.043014526367,-2468.48779296875,-0.012712956406176,-0.695498764514923,-0.054682243615389,0.716330707073212,43.7456092834473,-31.0779876708984,-2494.04174804687,-0.621380507946014,-0.00282540707849,-0.776342809200287,0.105688780546188
2024/02/23/10:52:09.271244,9131,1708685529,270282596,,2.81005549430847,-1.24066340923309,-0.760675430297852,-2.03332805633545,93.5455169677734,-52.0312194824219,129.852966308594,-187.046600341797,-2468.47119140625,-0.012101234868169,-0.695393025875092,-0.055284261703491,0.716397762298584,43.7928085327148,-31.1174716949463,-2494.130859375,-0.621221542358398,-0.003043625736609,-0.776491761207581,0.105522990226746
2024/02/23/10:52:09.320950,9132,1708685529,320091565,,2.82327103614807,-1.25483787059784,-0.736731469631195,-2.12797808647156,93.3905868530274,-51.8732643127441,129.771560668945,-187.030380249023,-2468.38134765625,-0.012713766656816,-0.695689618587494,-0.054623052477837,0.716149806976318,43.7328605651855,-31.1737499237061,-2494.12280273437,-0.621650218963623,-0.002925324020907,-0.776086211204529,0.105983965098858
2024/02/23/10:52:09.371039,9133,1708685529,370378412,,2.82620024681091,-1.27065479755402,-0.681790053844452,-3.42926788330078,94.9306640625,-51.7133331298828,129.849609375,-187.053024291992,-2468.45483398437,-0.011783332563937,-0.69566261768341,-0.055584888905287,0.716117978096008,43.7930641174316,-31.086446762085,-2494.11376953125,-0.621658504009247,-0.002584545407444,-0.776105105876923,0.105806343257427
2024/02/23/10:52:09.420894,9134,1708685529,420204646,,2.80409121513367,-1.24581396579742,-0.692612707614899,-4.43617630004883,95.9147186279297,-51.8304252624512,129.785278320313,-187.034027099609,-2468.46899414062,-0.012344771064818,-0.695708513259888,-0.054974220693112,0.716111123561859,43.7658004760742,-31.119686126709,-2494.18286132813,-0.621494948863983,-0.00262636737898,-0.776161909103394,0.106347791850567
2024/02/23/10:52:09.470867,9135,1708685529,470137802,,2.80716228485107,-1.22757065296173,-0.714908301830292,-3.77741098403931,95.2884368896484,-53.1091613769531,129.85807800293,-187.050964355469,-2468.38256835938,-0.012719246558845,-0.696049571037293,-0.054517805576325,0.715807914733887,43.8812294006348,-31.1782531738281,-2494.4228515625,-0.621414482593536,-0.003295302856714,-0.776223719120026,0.106347747147083
2024/02/23/10:52:09.520561,9136,1708685529,519931654,,2.76621866226196,-1.21935951709747,-0.640996694564819,-7.84096193313599,97.5244216918945,-57.2539100646973,129.808670043945,-187.045257568359,-2468.49096679687,-0.012594887986779,-0.695381581783295,-0.054809577763081,0.716436862945556,43.9286918640137,-31.5258102416992,-2494.61328125,-0.621697306632996,-0.004867128562182,-0.775907695293427,0.106939539313316
2024/02/23/10:52:09.571334,9137,1708685529,570654893,,2.72383117675781,-1.20377326011658,-0.593868970870972,-11.3881940841675,100.505020141602,-61.1623611450195,129.805114746094,-187.025604248047,-2468.46728515625,-0.012064417824149,-0.69550347328186,-0.055224526673555,0.716295719146729,43.9094619750977,-31.3661918640137,-2494.755859375,-0.620829939842224,-0.004801536444575,-0.776739060878754,0.10594093054533
2024/02/23/10:52:09.620689,9138,1708685529,620085741,,2.72746396064758,-1.21087229251862,-0.565524578094482,-12.0247735977173,102.115768432617,-60.0056495666504,129.831970214844,-187.060806274414,-2468.43286132812,-0.012085113674402,-0.695749640464783,-0.055341437458992,0.716047286987305,43.9093399047852,-31.405101776123,-2494.66333007812,-0.621101498603821,-0.003610354382545,-0.776320695877075,0.107452392578125
2024/02/23/10:52:09.671478,9139,1708685529,670589364,,2.73202919960022,-1.17818808555603,-0.621429681777954,-10.3706817626953,100.788360595703,-58.6670608520508,129.824493408203,-187.030364990234,-2468.43310546875,-0.01151882763952,-0.695759534835815,-0.055766876786947,0.716013908386231,43.8591842651367,-31.3729763031006,-2494.681640625,-0.620515763759613,-0.00345926405862,-0.776832282543182,0.107144065201283
2024/02/23/10:52:09.720872,9140,1708685529,720083795,,2.76937556266785,-1.16054618358612,-0.695552468299866,-4.94183588027954,96.0585174560547,-58.7227020263672,129.805725097656,-187.023818969727,-2468.4384765625,-0.012292118743062,-0.695609092712402,-0.055015813559294,0.716205418109894,43.8314018249512,-31.3563175201416,-2494.572265625,-0.620253264904022,-0.0034076848533,-0.777057230472565,0.107034176588058
2024/02/23/10:52:09.771116,9141,1708685529,770525818,,2.7735641002655,-1.20483756065369,-0.668285131454468,-3.88250875473022,95.0120010375977,-58.0723037719727,129.842346191406,-187.039001464844,-2468.37426757812,-0.012827343307436,-0.695945858955383,-0.054452959448099,0.71591180562973,43.8525314331055,-31.3953533172607,-2494.5654296875,-0.621156990528107,-0.003726086346433,-0.776391088962555,0.106616042554379
2024/02/23/10:52:09.820659,9142,1708685529,820019908,,2.78100991249084,-1.20998501777649,-0.69957971572876,-3.49592328071594,94.9409866333008,-56.763355255127,129.822463989258,-187.043090820313,-2468.5693359375,-0.012424062006176,-0.695228099822998,-0.05491903051734,0.716580390930176,43.8511428833008,-31.3793525695801,-2494.64111328125,-0.620682597160339,-0.003273743670434,-0.776720106601715,0.106996409595013
2024/02/23/10:52:09.870884,9143,1708685529,869850038,,2.79897785186768,-1.22046256065369,-0.684435784816742,-3.12163949012756,95.2731704711914,-56.4068031311035,129.800506591797,-187.029113769531,-2468.42333984375,-0.012422350235283,-0.695848643779755,-0.054906718432903,0.715978801250458,43.8342590332031,-31.3537559509277,-2494.6953125,-0.620164573192596,-0.003136968705803,-0.777136325836181,0.106981985270977
2024/02/23/10:52:09.920701,9144,1708685529,920015586,,2.79243159294128,-1.20476090908051,-0.711792767047882,-2.65486121177673,95.9890289306641,-56.6237678527832,129.82080078125,-187.036819458008,-2468.38940429687,-0.011830201372504,-0.695710003376007,-0.055557999759913,0.716073334217072,43.8510627746582,-31.3522644042969,-2494.66455078125,-0.621300518512726,-0.003065566066653,-0.776207149028778,0.107138723134994
2024/02/23/10:52:09.971028,9145,1708685529,970230555,,2.78147721290588,-1.18728923797607,-0.714833974838257,-2.37015748023987,96.5040817260742,-57.3165435791016,129.818740844727,-187.045913696289,-2468.49853515625,-0.012517955154181,-0.695639967918396,-0.054900776594877,0.716180324554443,43.8799781799316,-31.4107646942139,-2494.78833007812,-0.620340406894684,-0.003547995351255,-0.776979207992554,0.107090994715691
2024/02/23/10:52:10.020956,9146,1708685530,20179589,,2.79635977745056,-1.16951858997345,-0.747980892658233,-0.636901259422302,94.9473419189453,-57.7368354797363,129.834869384766,-187.04313659668,-2468.52026367187,-0.012731953524053,-0.695542514324188,-0.054639339447022,0.716291189193726,43.9145584106445,-31.375129699707,-2494.7890625,-0.620446681976318,-0.003226784989238,-0.776845812797546,0.107452727854252
2024/02/23/10:52:10.071282,9147,1708685530,70597999,,2.8206946849823,-1.2146475315094,-0.708244979381561,-1.41733288764954,95.0882263183594,-57.9155120849609,129.806350708008,-187.032424926758,-2468.41967773438,-0.012567363679409,-0.69563627243042,-0.054805934429169,0.716190338134766,43.8660850524902,-31.2426013946533,-2494.78271484375,-0.620563387870789,-0.003056575311348,-0.776826679706574,0.106920830905437
2024/02/23/10:52:10.120826,9148,1708685530,120120251,,2.78308844566345,-1.21724629402161,-0.68588262796402,-4.36065769195557,98.1085510253906,-57.0836791992187,129.838195800781,-187.047088623047,-2468.498046875,-0.012691639363766,-0.695266544818878,-0.054714526981115,0.716554045677185,43.8992080688477,-31.2816581726074,-2494.73510742187,-0.620959639549255,-0.002825197996572,-0.776441097259522,0.10742624849081
2024/02/23/10:52:10.171111,9149,1708685530,170405116,,2.76875877380371,-1.20505273342133,-0.65786337852478,-5.0197114944458,98.8730163574219,-57.8722152709961,129.780914306641,-187.036727905273,-2468.49438476562,-0.011798386462033,-0.69556587934494,-0.055537261068821,0.716215372085571,43.8223571777344,-31.1366271972656,-2494.72412109375,-0.620209395885468,-0.002392022870481,-0.777080059051514,0.107150115072727
2024/02/23/10:52:10.220714,9150,1708685530,219996749,,2.76456665992737,-1.16613125801086,-0.714205622673035,-3.85834383964539,98.0547943115234,-58.1838417053223,129.854965209961,-187.048263549805,-2468.3974609375,-0.013164825737476,-0.695702493190765,-0.054193567484617,0.716161847114563,43.9367942810059,-31.3014163970947,-2494.82568359375,-0.620114505290985,-0.002116129733622,-0.776962339878082,0.108549535274506
2024/02/23/10:52:10.271153,9151,1708685530,270493333,,2.78827285766602,-1.17832505702972,-0.700219511985779,-2.69661426544189,96.6729431152344,-59.1255569458008,129.773315429688,-187.027862548828,-2468.38427734375,-0.012231275439262,-0.695776700973511,-0.055128328502178,0.716034948825836,43.8975105285645,-31.3085174560547,-2495.00659179688,-0.619823455810547,-0.00300556095317,-0.77724677324295,0.108154408633709
2024/02/23/10:52:10.320835,9152,1708685530,320057746,,2.77391624450684,-1.1606787443161,-0.679830431938171,-4.57087087631226,97.5916900634766,-61.9899597167969,129.847549438477,-187.048889160156,-2468.52612304688,-0.013471277430654,-0.695386946201324,-0.053905274719,0.716484308242798,44.0432052612305,-31.5916213989258,-2495.10913085938,-0.619280397891998,-0.004310470540077,-0.777607917785645,0.108623683452606
2024/02/23/10:52:10.371061,9153,1708685530,370448197,,2.79250717163086,-1.17606639862061,-0.64537525177002,-5.1070237159729,97.4918441772461,-62.8477516174316,129.777206420898,-187.026428222656,-2468.4638671875,-0.012826900929213,-0.69561243057251,-0.054506182670593,0.71623170375824,43.9607124328613,-31.5139236450195,-2495.14379882812,-0.619144558906555,-0.004087396431714,-0.777731835842133,0.108519941568375
2024/02/23/10:52:10.421330,9154,1708685530,420518714,,2.77442741394043,-1.18031537532806,-0.621085286140442,-6.34648323059082,98.2298965454102,-62.8215637207031,129.821655273438,-187.035797119141,-2468.4814453125,-0.012233319692314,-0.695414185523987,-0.055189557373524,0.716382265090942,43.9454040527344,-31.5046806335449,-2494.94506835937,-0.618819057941437,-0.003199356375262,-0.777912080287933,0.109112359583378
2024/02/23/10:52:10.470991,9155,1708685530,470443175,,2.8102912902832,-1.13276696205139,-0.732760787010193,-0.515385508537293,94.2475357055664,-61.2164001464844,129.817123413086,-187.036437988281,-2468.43017578125,-0.012748935259879,-0.695771634578705,-0.054631192237139,0.716068923473358,43.7836532592773,-31.2042083740234,-2494.85107421875,-0.61863625049591,-0.000693648471497,-0.778008162975311,0.109508074820042
2024/02/23/10:52:10.521506,9156,1708685530,520715974,,2.8858745098114,-1.15065324306488,-0.840903639793396,8.24281311035156,86.6370010375977,-57.2083740234375,129.819488525391,-187.017105102539,-2468.44311523437,-0.012302059680224,-0.695721566677094,-0.055063962936401,0.71609228849411,43.7569084167481,-31.3561038970947,-2494.77124023438,-0.617732524871826,-0.00034109261469,-0.778625428676605,0.110221818089485
2024/02/23/10:52:10.571145,9157,1708685530,570579182,,2.91941213607788,-1.21539664268494,-0.835083842277527,13.908447265625,82.9088287353516,-54.3801879882813,129.791275024414,-187.023101806641,-2468.46337890625,-0.012621412053704,-0.69553804397583,-0.054719902575016,0.716291308403015,43.755916595459,-31.332706451416,-2494.99438476562,-0.618197083473206,-0.001181842642836,-0.778418302536011,0.109068788588047
2024/02/23/10:52:10.621281,9158,1708685530,620368772,,2.90384364128113,-1.23199725151062,-0.79323810338974,11.911961555481,84.9478607177734,-55.6066970825195,129.859069824219,-187.051239013672,-2468.54663085937,-0.012274067848921,-0.695127546787262,-0.05512385815382,0.716664731502533,43.98095703125,-32.029727935791,-2495.33203125,-0.617591619491577,-0.002414471935481,-0.778552293777466,0.111494794487953
2024/02/23/10:52:10.671123,9159,1708685530,670495958,,2.91373658180237,-1.28629434108734,-0.771290957927704,11.9816770553589,86.0524444580078,-54.9157028198242,129.753616333008,-187.026412963867,-2468.49755859375,-0.011614236049354,-0.695309340953827,-0.055819593369961,0.716445565223694,43.9744873046875,-31.9067287445068,-2495.89697265625,-0.615557849407196,-0.002250727033243,-0.780221045017242,0.111079223453999
2024/02/23/10:52:10.721595,9160,1708685530,720420669,,2.95305562019348,-1.26832783222198,-0.776609361171722,11.8690948486328,86.9327011108399,-54.8388824462891,129.851104736328,-187.054748535156,-2468.49609375,-0.012169033288956,-0.695528924465179,-0.05519475787878,0.716271579265595,44.1234436035156,-32.1435356140137,-2496.1962890625,-0.616171360015869,-0.002753471257165,-0.779680907726288,0.111458532512188
2024/02/23/10:52:10.771132,9161,1708685530,770536006,,2.92334246635437,-1.29835069179535,-0.632693529129028,7.92831420898438,92.30908203125,-55.6990280151367,129.79557800293,-187.049118041992,-2468.41845703125,-0.013874213211238,-0.69576108455658,-0.053439944982529,0.716148138046265,44.0124320983887,-32.1319923400879,-2496.10595703125,-0.61684638261795,-0.002227090997621,-0.779120922088623,0.111651957035065
2024/02/23/10:52:10.821077,9162,1708685530,820274405,,2.82268238067627,-1.22457122802734,-0.679175317287445,5.15512323379517,96.3380126953125,-56.0638046264648,129.825103759766,-187.030227661133,-2468.3115234375,-0.012326005846262,-0.69612842798233,-0.054917447268963,0.715707540512085,44.0577049255371,-32.2423515319824,-2496.1572265625,-0.61645382642746,-0.002977681811899,-0.779445767402649,0.111535280942917
2024/02/23/10:52:10.871572,9163,1708685530,870899958,,2.84366321563721,-1.23466098308563,-0.65634298324585,5.82617855072022,95.1445770263672,-57.4787216186523,129.809600830078,-187.046676635742,-2468.505859375,-0.012778490781784,-0.695486128330231,-0.054600559175015,0.716348052024841,43.9986343383789,-32.2098999023437,-2496.07836914062,-0.616934776306152,-0.003401589812711,-0.77920526266098,0.11054003238678
2024/02/23/10:52:10.920911,9164,1708685530,920154783,,2.80955243110657,-1.20367836952209,-0.681429803371429,4.6185941696167,95.5971908569336,-58.4208946228027,129.841567993164,-187.050048828125,-2468.41552734375,-0.012376422993839,-0.695467233657837,-0.054952323436737,0.716346621513367,43.8678131103516,-33.0341873168945,-2496.04614257812,-0.617031753063202,-0.004611839074641,-0.77874368429184,0.113175891339779
2024/02/23/10:52:10.970759,9165,1708685530,970175847,,2.80407476425171,-1.20532965660095,-0.6837278008461,5.47775888442993,94.4543228149414,-59.3948135375977,129.800323486328,-187.038024902344,-2468.43383789062,-0.011819057166576,-0.695488393306732,-0.055581901222468,0.716286838054657,43.2522888183594,-34.219310760498,-2496.11938476562,-0.617625892162323,-0.00748254917562,-0.777896285057068,0.115583993494511
2024/02/23/10:52:11.021003,9166,1708685531,20413121,,2.77593421936035,-1.30103921890259,-0.515152931213379,-0.544667184352875,97.8764266967773,-58.4912147521973,129.831268310547,-187.041961669922,-2468.48999023437,-0.012016939930618,-0.69510942697525,-0.055365480482578,0.71666806936264,42.8842811584473,-35.3901062011719,-2496.52880859375,-0.616294324398041,-0.008856761269271,-0.778323531150818,0.119646809995174
2024/02/23/10:52:11.070993,9167,1708685531,70269373,,2.69853019714355,-1.23470103740692,-0.610118985176086,-0.43039882183075,98.5362701416016,-57.5720596313477,129.796173095703,-187.057632446289,-2468.41577148437,-0.012374524958432,-0.695326447486877,-0.055039048194885,0.716476559638977,42.9563140869141,-36.3741149902344,-2496.99243164063,-0.613922476768494,-0.011797831393778,-0.779857337474823,0.121583506464958
2024/02/23/10:52:11.121203,9168,1708685531,120355848,,2.7560920715332,-1.2411060333252,-0.593338310718536,3.7953245639801,96.883659362793,-60.5457420349121,129.832580566406,-187.052627563477,-2468.38012695313,-0.012661051936448,-0.695559024810791,-0.054666686803103,0.716274321079254,42.9977912902832,-36.8908195495605,-2497.30078125,-0.613772630691528,-0.012209907174111,-0.779600262641907,0.123925074934959
2024/02/23/10:52:11.170915,9169,1708685531,170317462,,2.76927661895752,-1.23948061466217,-0.531176924705505,2.98042511940002,98.5985336303711,-63.4116096496582,129.784133911133,-187.053741455078,-2468.40209960938,-0.012259914539754,-0.695319712162018,-0.055190566927195,0.716473400592804,43.0285568237305,-37.1268310546875,-2497.84887695312,-0.61275053024292,-0.012465787120164,-0.780272781848908,0.124722540378571
2024/02/23/10:52:11.221343,9170,1708685531,220510915,,2.78827476501465,-1.21808338165283,-0.497724860906601,2.65604329109192,101.40461730957,-63.4533576965332,129.827590942383,-187.067626953125,-2468.3671875,-0.01261864695698,-0.69548112154007,-0.054838441312313,0.716337561607361,43.188346862793,-37.3070259094238,-2498.49609375,-0.611277878284454,-0.011401921510697,-0.781049966812134,0.127162367105484
2024/02/23/10:52:11.271035,9171,1708685531,270431892,,2.77032208442688,-1.19826531410217,-0.420752167701721,-1.77832388877869,106.828628540039,-64.0583267211914,129.798690795898,-187.05126953125,-2468.3466796875,-0.012907810509205,-0.695399045944214,-0.05450576543808,0.716437518596649,43.3720512390137,-37.7254333496094,-2499.10400390625,-0.610292375087738,-0.012191725894809,-0.781589090824127,0.128503113985062
2024/02/23/10:52:11.321072,9172,1708685531,320317237,,2.76891446113586,-1.12848365306854,-0.50963830947876,0.486707448959351,108.883285522461,-65.5334320068359,129.827819824219,-187.042877197266,-2468.37817382813,-0.011907827109099,-0.695371389389038,-0.05547433719039,0.716407299041748,43.7819023132324,-38.5386009216309,-2500.02905273438,-0.609407722949982,-0.013699727132917,-0.781933903694153,0.13043737411499
2024/02/23/10:52:11.371200,9173,1708685531,370625727,,2.81366920471191,-1.18507266044617,-0.478895425796509,-2.1224799156189,108.351005554199,-64.2503128051758,129.786926269531,-187.040588378906,-2468.32373046875,-0.012830900959671,-0.69557136297226,-0.054525140672922,0.716270089149475,44.0940666198731,-39.3609466552734,-2501.08837890625,-0.607847809791565,-0.014077982865274,-0.782578110694885,0.13376984000206
2024/02/23/10:52:11.421170,9174,1708685531,420439423,,2.82590484619141,-1.18818557262421,-0.514999866485596,-1.64160561561584,110.650993347168,-62.1587104797363,129.841674804688,-187.043350219727,-2468.31494140625,-0.012052510865033,-0.69561904668808,-0.055227629840374,0.716183483600616,44.4211311340332,-39.8412170410156,-2502.080078125,-0.606248736381531,-0.013868076726794,-0.783366084098816,0.136409714818001
2024/02/23/10:52:11.471362,9175,1708685531,470506880,,2.82500696182251,-1.17034888267517,-0.486874222755432,-3.90830254554749,113.86287689209,-63.0669898986816,129.801956176758,-187.054504394531,-2468.44165039062,-0.012974881567061,-0.69503790140152,-0.054456617683172,0.71679037809372,44.622184753418,-40.8755874633789,-2503.10424804687,-0.604806900024414,-0.014791376888752,-0.783770203590393,0.140335813164711
2024/02/23/10:52:11.521117,9176,1708685531,520367434,,2.80515813827515,-1.11008548736572,-0.533469676971435,-5.18217658996582,115.071746826172,-64.090950012207,129.846740722656,-187.059585571289,-2468.39624023437,-0.012481890618801,-0.695284366607666,-0.054932802915573,0.716523706912994,44.5564155578613,-41.9687995910645,-2504.18603515625,-0.602313280105591,-0.016298582777381,-0.785005450248718,0.143942773342133
2024/02/23/10:52:11.571317,9177,1708685531,570607442,,2.80775260925293,-1.09684407711029,-0.550906777381897,-4.21031141281128,114.122436523438,-63.1523818969727,129.789321899414,-187.039840698242,-2468.29321289063,-0.01184469461441,-0.695557534694672,-0.055496614426375,0.716225862503052,44.6679191589355,-42.9259986877441,-2504.921875,-0.601647555828095,-0.019176939502359,-0.785105884075165,0.145812153816223
2024/02/23/10:52:11.621401,9178,1708685531,620595847,,2.84309792518616,-1.14974141120911,-0.472557365894318,-5.54257774353027,115.242546081543,-62.401481628418,129.835540771484,-187.069534301758,-2468.44287109375,-0.011991959065199,-0.695128977298737,-0.055470924824476,0.716641366481781,44.8284721374512,-43.35498046875,-2505.53759765625,-0.599903643131256,-0.019660234451294,-0.786239087581635,0.146823480725288
2024/02/23/10:52:11.670799,9179,1708685531,670155652,,2.81898832321167,-1.12631905078888,-0.502581357955933,-7.31996822357178,117.597015380859,-61.3244590759277,129.802963256836,-187.066223144531,-2468.38134765625,-0.012405946850777,-0.695331692695618,-0.055013027042151,0.716472983360291,44.6808471679688,-43.7192726135254,-2505.91796875,-0.598929107189178,-0.020405678078532,-0.786850810050964,0.147422477602959
2024/02/23/10:52:11.721090,9180,1708685531,720310973,,2.83122873306274,-1.0940945148468,-0.569728374481201,-4.67110443115234,114.339721679688,-59.5561332702637,129.838668823242,-187.056686401367,-2468.42309570312,-0.012945736758411,-0.69518119096756,-0.05444486066699,0.716652810573578,44.5153350830078,-43.6689949035645,-2506.1318359375,-0.598698496818543,-0.021063201129437,-0.787232160568237,0.146225959062576
2024/02/23/10:52:11.770754,9181,1708685531,770223074,,2.82837128639221,-1.15849077701569,-0.465751528739929,-8.14976310729981,114.582244873047,-56.3694725036621,129.802276611328,-187.050338745117,-2468.39575195313,-0.012009462341666,-0.695551753044128,-0.055372565984726,0.716238379478455,44.2146720886231,-43.0258026123047,-2505.82055664062,-0.599851429462433,-0.01995649933815,-0.786939859390259,0.143198102712631
2024/02/23/10:52:11.820910,9182,1708685531,820013111,,2.78580927848816,-1.1520026922226,-0.455252766609192,-15.4228429794312,114.730316162109,-50.8043785095215,129.863372802734,-187.069061279297,-2468.38598632812,-0.012992983683944,-0.695524096488953,-0.054449159651995,0.716318905353546,44.1657981872559,-42.1686096191406,-2505.68383789063,-0.601154148578644,-0.019964823499322,-0.786956965923309,0.137527495622635
2024/02/23/10:52:11.871006,9183,1708685531,870348784,,2.77623319625854,-1.1007684469223,-0.507134556770325,-20.0138359069824,111.883438110352,-45.3762817382813,129.798950195313,-187.060913085938,-2468.46142578125,-0.012377208098769,-0.69513875246048,-0.055110991001129,0.716653108596802,43.8978805541992,-40.6581420898438,-2505.28881835937,-0.603736221790314,-0.019208583980799,-0.786398112773895,0.129273280501366
2024/02/23/10:52:11.920916,9184,1708685531,920225758,,2.73535847663879,-1.08187055587769,-0.454006135463715,-31.1916084289551,112.943176269531,-40.8120079040527,129.847778320313,-187.048919677734,-2468.44018554687,-0.012014453299344,-0.69528728723526,-0.055360659956932,0.716495990753174,43.5870780944824,-40.2882843017578,-2505.16870117187,-0.606032609939575,-0.020133094862104,-0.785290777683258,0.125050202012062
2024/02/23/10:52:11.970815,9185,1708685531,970198218,,2.68616604804993,-1.11140143871307,-0.322458863258362,-44.1844902038574,117.491081237793,-33.439453125,129.792068481445,-187.047454833984,-2468.37133789063,-0.012991617433727,-0.695350527763367,-0.054458945989609,0.716486632823944,43.1198959350586,-39.3746604919434,-2504.70166015625,-0.609430551528931,-0.02027939260006,-0.783702313899994,0.118295356631279
2024/02/23/10:52:12.021088,9186,1708685532,20271613,,2.56558084487915,-1.06229341030121,-0.425526857376099,-51.3304977416992,121.029815673828,-27.9166202545166,129.847351074219,-187.047424316406,-2468.39770507813,-0.01204298902303,-0.695274651050568,-0.055388402193785,0.716505587100983,42.9121513366699,-39.9909820556641,-2504.73706054687,-0.610824823379517,-0.021696610376239,-0.782557725906372,0.118430264294148
2024/02/23/10:52:12.070706,9187,1708685532,70028801,,2.53299379348755,-1.01670098304749,-0.572956085205078,-47.8944778442383,121.372444152832,-24.1123714447021,129.814651489258,-187.057281494141,-2468.43725585937,-0.011743053793907,-0.694996774196625,-0.055810917168856,0.716747283935547,42.4586067199707,-40.6155548095703,-2504.84545898437,-0.612775981426239,-0.024527726694942,-0.781095564365387,0.117446668446064
2024/02/23/10:52:12.121078,9188,1708685532,120437862,,2.57546997070312,-1.05162787437439,-0.570573687553406,-43.9410629272461,118.661796569824,-22.5600814819336,129.865615844727,-187.051742553711,-2468.44873046875,-0.011963571421802,-0.695082724094391,-0.05553338304162,0.716681897640228,42.1837921142578,-41.420036315918,-2505.13061523437,-0.612981140613556,-0.026713274419308,-0.780745148658752,0.118226766586304
2024/02/23/10:52:12.171124,9189,1708685532,170351998,,2.55499887466431,-1.07574903964996,-0.529878258705139,-46.35009765625,120.693702697754,-20.180591583252,129.798156738281,-187.024429321289,-2468.25366210938,-0.012525457888842,-0.69570130109787,-0.05489244312048,0.716121256351471,41.8566665649414,-42.1052322387695,-2505.5634765625,-0.611788094043732,-0.030300395563245,-0.781673073768616,0.117407105863094
2024/02/23/10:52:12.221181,9190,1708685532,220612820,,2.52843952178955,-1.06351554393768,-0.528183877468109,-50.0566825866699,123.204254150391,-19.3053874969482,129.879425048828,-187.041778564453,-2468.35766601562,-0.011731419712305,-0.695520579814911,-0.055614721029997,0.716254472732544,41.852180480957,-42.8231201171875,-2505.76220703125,-0.61247730255127,-0.032465852797031,-0.781044125556946,0.117420852184296
2024/02/23/10:52:12.270645,9191,1708685532,270027758,,2.53378677368164,-1.04233372211456,-0.584690570831299,-50.8879928588867,125.032302856445,-17.2155323028564,129.776077270508,-187.038146972656,-2468.42456054687,-0.013124005869031,-0.695232272148132,-0.054285582154989,0.716612160205841,41.6068115234375,-43.5326843261719,-2505.951171875,-0.612698435783386,-0.035840176045895,-0.780746638774872,0.117263697087765
2024/02/23/10:52:12.320849,9192,1708685532,320154842,,2.53857827186584,-1.05938136577606,-0.541440308094025,-54.3723945617676,125.973472595215,-16.6035575866699,129.870666503906,-187.063705444336,-2468.36865234375,-0.01295081526041,-0.695337831974029,-0.054498605430126,0.716496646404266,41.7650032043457,-43.8233604431152,-2505.76342773437,-0.613308906555176,-0.038714539259672,-0.780424773693085,0.115284904837608
2024/02/23/10:52:12.371067,9193,1708685532,370425436,,2.50822281837463,-1.00458347797394,-0.621573567390442,-58.0425109863281,127.389869689941,-16.3672409057617,129.796478271484,-187.050888061523,-2468.45166015625,-0.012368710711598,-0.695213735103607,-0.055115465074778,0.716580212116241,41.7850952148438,-44.162483215332,-2505.46948242187,-0.613501965999603,-0.039532884955406,-0.780258178710938,0.115107141435146
2024/02/23/10:52:12.420857,9194,1708685532,420050616,,2.54131460189819,-0.98571914434433,-0.708136439323425,-53.6959381103516,123.39542388916,-16.4874019622803,129.86784362793,-187.058502197266,-2468.40454101562,-0.012271326966584,-0.695184528827667,-0.055141340941191,0.716608226299286,41.7879333496094,-44.366527557373,-2505.16796875,-0.613992691040039,-0.042676776647568,-0.780118346214294,0.112281076610088
2024/02/23/10:52:12.471289,9195,1708685532,470608458,,2.54365873336792,-1.01504957675934,-0.690575122833252,-56.1841011047363,121.121841430664,-16.9613437652588,129.827514648438,-187.050018310547,-2468.35278320312,-0.01245495211333,-0.695463001728058,-0.054898958653212,0.716353416442871,41.7274551391602,-45.612922668457,-2504.92358398437,-0.612969517707825,-0.046242527663708,-0.780327379703522,0.114974915981293
2024/02/23/10:52:12.521002,9196,1708685532,520473931,,2.52923965454102,-0.971226453781128,-0.729342222213745,-54.9684600830078,119.109588623047,-19.1699066162109,129.853652954102,-187.063674926758,-2468.42309570312,-0.012346440926194,-0.695183217525482,-0.055100996047258,0.716611325740814,41.7727012634277,-46.3579711914062,-2504.64135742187,-0.61172091960907,-0.047086022794247,-0.780832052230835,0.117820881307125
2024/02/23/10:52:12.570689,9197,1708685532,569955450,,2.59468460083008,-0.994012117385864,-0.769438683986664,-51.606086730957,114.213523864746,-21.595947265625,129.833374023438,-187.06950378418,-2468.34130859375,-0.013853523880243,-0.695366024971008,-0.053607776761055,0.716519594192505,41.6140441894531,-47.6238784790039,-2504.48876953125,-0.60977429151535,-0.049705017358065,-0.781563937664032,0.121912091970444
2024/02/23/10:52:12.621744,9198,1708685532,621002741,,2.60984230041504,-0.9935103058815,-0.854721009731293,-49.7034683227539,111.757904052734,-21.201322555542,129.821411132813,-187.047897338867,-2468.42749023437,-0.012582552619279,-0.695202350616455,-0.054867066442967,0.716606557369232,41.4601173400879,-49.0014266967773,-2504.361328125,-0.608419477939606,-0.052707951515913,-0.781689703464508,0.126525983214378
2024/02/23/10:52:12.671057,9199,1708685532,670243065,,2.70450782775879,-1.02298581600189,-0.897719323635101,-43.5073623657227,105.33674621582,-22.1380462646484,129.814270019531,-187.071914672852,-2468.29467773437,-0.013155840337277,-0.695579409599304,-0.054246433079243,0.716277539730072,41.4679107666016,-50.1983871459961,-2504.62524414062,-0.605570793151856,-0.053926911205053,-0.783011615276337,0.131410554051399
2024/02/23/10:52:12.720917,9200,1708685532,720163374,,2.74453353881836,-1.08206653594971,-0.864991068840027,-43.6329231262207,104.749237060547,-22.1036376953125,129.880065917969,-187.081741333008,-2468.35131835937,-0.012572799809277,-0.695379793643951,-0.054829839617014,0.71643739938736,41.712158203125,-51.005313873291,-2505.10302734375,-0.604548215866089,-0.055288102477789,-0.783309698104858,0.133755907416344
2024/02/23/10:52:12.771458,9201,1708685532,770748529,,2.75821614265442,-1.10884463787079,-0.852307915687561,-44.1675148010254,106.114631652832,-22.1204586029053,129.742660522461,-187.080047607422,-2468.36840820312,-0.011752584949136,-0.695265710353851,-0.055679544806481,0.716496527194977,42.044548034668,-51.4416236877441,-2506.1513671875,-0.600692391395569,-0.055163633078337,-0.785776913166046,0.136675864458084
2024/02/23/10:52:12.821131,9202,1708685532,820586384,,2.78107237815857,-1.09561049938202,-0.841143071651459,-45.2547111511231,110.571113586426,-23.8750686645508,129.956512451172,-187.110870361328,-2468.37841796875,-0.012838551774621,-0.695421993732452,-0.054486215114594,0.716417968273163,42.778995513916,-52.0500602722168,-2507.134765625,-0.597703516483307,-0.055739369243384,-0.787370324134827,0.140326544642448
2024/02/23/10:52:12.870981,9203,1708685532,870383307,,2.79715538024902,-1.01411187648773,-0.854570150375366,-45.5270156860352,115.555686950684,-27.4324970245361,129.744613647461,-187.068237304688,-2468.35668945312,-0.013224573805928,-0.695483148097992,-0.054103877395392,0.716380536556244,42.834545135498,-51.8188095092773,-2507.7890625,-0.596999943256378,-0.05538122355938,-0.787947475910187,0.140223979949951
2024/02/23/10:52:12.921064,9204,1708685532,920417591,,2.80076909065247,-1.06194972991943,-0.714727163314819,-48.8269462585449,120.501472473145,-29.1315689086914,129.926452636719,-187.083160400391,-2468.21606445312,-0.013478946872056,-0.695935904979706,-0.053823884576559,0.71595698595047,43.4778785705566,-51.7311172485352,-2508.17895507812,-0.597271084785461,-0.054787553846836,-0.787794351577759,0.140162646770477
2024/02/23/10:52:12.971097,9205,1708685532,970260119,,2.75741529464722,-0.989969432353973,-0.789742946624756,-47.4455108642578,124.975463867188,-29.8200397491455,129.765655517578,-187.064651489258,-2468.40014648437,-0.01292790658772,-0.695368826389313,-0.05449315533042,0.716467440128326,43.6750907897949,-51.144416809082,-2508.62036132812,-0.59748238325119,-0.052665315568447,-0.788099348545074,0.138349547982216
2024/02/23/10:52:13.020947,9206,1708685533,20403691,,2.78372883796692,-1.01359438896179,-0.781124591827393,-43.0493927001953,126.641990661621,-30.6120929718018,129.925003051758,-187.077285766602,-2468.3544921875,-0.012893764302135,-0.69548898935318,-0.054406117647886,0.716358006000519,44.3459625244141,-50.4601669311523,-2509.056640625,-0.598416447639465,-0.052916835993528,-0.788095653057098,0.134174451231956
2024/02/23/10:52:13.071304,9207,1708685533,70604202,,2.76809024810791,-1.05186915397644,-0.674033343791962,-47.9932632446289,133.443603515625,-31.4397735595703,129.74674987793,-187.06755065918,-2468.41943359375,-0.012620312161744,-0.695300698280335,-0.054847959429026,0.716511905193329,44.2834091186523,-49.6570777893066,-2509.64794921875,-0.597428977489471,-0.052120096981526,-0.789372861385345,0.131349131464958
2024/02/23/10:52:13.121501,9208,1708685533,120707031,,2.7215404510498,-1.01009154319763,-0.608871579170227,-58.6779747009277,138.162292480469,-31.0209808349609,129.934860229492,-187.112686157227,-2468.43969726562,-0.012824915349484,-0.695209860801697,-0.054578918963671,0.716616988182068,44.4036560058594,-49.2564735412598,-2509.77294921875,-0.595601737499237,-0.05210692062974,-0.791068077087402,0.129440382122994
2024/02/23/10:52:13.171254,9209,1708685533,170285366,,2.63819646835327,-0.935784101486206,-0.502216935157776,-72.3571166992187,141.230712890625,-30.6594314575195,129.788757324219,-187.08235168457,-2468.404296875,-0.013182064518333,-0.69539999961853,-0.054279170930386,0.716448783874512,43.9224128723145,-48.0929946899414,-2509.029296875,-0.596841871738434,-0.04933961480856,-0.790855228900909,0.126069203019142
2024/02/23/10:52:13.221391,9210,1708685533,220792226,,2.58358240127563,-0.887063980102539,-0.515088558197022,-79.8666763305664,138.121780395508,-28.8747901916504,129.92350769043,-187.07893371582,-2468.31762695312,-0.013302245177329,-0.695655941963196,-0.053994510322809,0.716219544410706,43.4462738037109,-48.2601089477539,-2508.04858398438,-0.596999049186707,-0.049897618591786,-0.790759027004242,0.125708013772964
2024/02/23/10:52:13.271003,9211,1708685533,270289053,,2.5190486907959,-0.804970562458038,-0.667540073394775,-82.8905029296875,131.408233642578,-24.7901916503906,129.863189697266,-187.065307617188,-2468.35083007812,-0.012587762437761,-0.695474207401276,-0.054784700274468,0.716348946094513,42.7354774475098,-48.4529800415039,-2506.88256835938,-0.598837316036224,-0.049448844045401,-0.789315700531006,0.126211911439896
2024/02/23/10:52:13.320804,9212,1708685533,320095113,,2.5722131729126,-0.85641211271286,-0.684290885925293,-81.6568145751953,121.118858337402,-21.2272815704346,129.902191162109,-187.051559448242,-2468.2744140625,-0.012574197724462,-0.695655643939972,-0.054678622633219,0.71618115901947,42.2193565368652,-48.8938064575195,-2506.30346679687,-0.599332571029663,-0.050491560250521,-0.788817167282105,0.126564219594002
2024/02/23/10:52:13.370984,9213,1708685533,370324724,,2.54328608512878,-0.898860037326813,-0.700471162796021,-82.3504028320312,116.291900634766,-17.4259872436523,129.882461547852,-187.073822021484,-2468.4091796875,-0.012238265946508,-0.695100128650665,-0.055226624011994,0.716684103012085,41.9541473388672,-49.2085494995117,-2505.89892578125,-0.60052090883255,-0.052791424095631,-0.787974834442139,0.125233307480812
2024/02/23/10:52:13.421511,9214,1708685533,420724936,,2.56955862045288,-0.970423698425293,-0.729708194732666,-82.4267425537109,112.687911987305,-14.5039005279541,129.933380126953,-187.085235595703,-2468.34643554687,-0.013439370319247,-0.695309221744537,-0.054036911576986,0.716550409793854,42.0478363037109,-49.2081756591797,-2505.81909179687,-0.60139274597168,-0.054264161735773,-0.787351250648499,0.124339118599892
2024/02/23/10:52:13.471110,9215,1708685533,470401060,,2.57296466827393,-1.05226159095764,-0.546721458435059,-91.4770050048828,118.246116638184,-16.3336620330811,129.879196166992,-187.075408935547,-2468.47192382813,-0.013772818259895,-0.695027649402618,-0.053677227348089,0.716844260692596,41.9688835144043,-48.8479347229004,-2505.71533203125,-0.602056264877319,-0.054309289902449,-0.787100374698639,0.122685708105564
2024/02/23/10:52:13.521307,9216,1708685533,520392530,,2.51107430458069,-0.927970886230469,-0.601649522781372,-94.1832427978516,122.436630249023,-18.8594341278076,129.897598266602,-187.081436157227,-2468.37353515625,-0.014151523821056,-0.695221126079559,-0.053248260170221,0.716681182384491,41.8641738891602,-48.4720115661621,-2505.34790039063,-0.603785991668701,-0.053606476634741,-0.786146283149719,0.120593853294849
2024/02/23/10:52:13.571215,9217,1708685533,570378837,,2.48698592185974,-0.929556488990784,-0.619590997695923,-94.1389083862305,122.297920227051,-16.7962989807129,129.881500244141,-187.071136474609,-2468.34057617187,-0.012614360079169,-0.69562178850174,-0.054692685604096,0.716212213039398,41.7181549072266,-48.3220825195312,-2505.06420898437,-0.605272591114044,-0.054233893752098,-0.785330891609192,0.118149116635323
2024/02/23/10:52:13.621752,9218,1708685533,620982719,,2.48161220550537,-0.946476221084595,-0.691107511520386,-90.7122955322266,119.025177001953,-14.243709564209,129.841598510742,-187.071411132813,-2468.29541015625,-0.012625524774194,-0.695671439170837,-0.054720245301724,0.716161668300629,41.2824058532715,-48.7801361083984,-2505.43188476562,-0.605626285076141,-0.054667346179485,-0.784793019294739,0.11970043182373
2024/02/23/10:52:13.672339,9219,1708685533,671259642,,2.49633646011353,-1.03113889694214,-0.552387714385986,-89.0061111450195,118.725357055664,-12.1529207229614,129.915649414063,-187.09538269043,-2468.39599609375,-0.012227775529027,-0.695251882076263,-0.055129837244749,0.716544508934021,41.2592658996582,-48.6546669006348,-2505.74975585937,-0.606093406677246,-0.054048635065556,-0.784547626972199,0.119224809110165
2024/02/23/10:52:13.721129,9220,1708685533,720109185,,2.47788214683533,-1.07384145259857,-0.418712854385376,-91.7804641723633,121.700714111328,-12.7653017044067,129.806915283203,-187.062530517578,-2468.41235351562,-0.01221967395395,-0.695364773273468,-0.055090006440878,0.716438114643097,41.2942657470703,-48.591911315918,-2506.07861328125,-0.605205893516541,-0.054415959864855,-0.785079061985016,0.120064780116081
2024/02/23/10:52:13.771051,9221,1708685533,770404882,,2.44489359855652,-1.02546286582947,-0.375306367874145,-98.107795715332,127.064315795898,-15.4586906433105,129.909881591797,-187.115005493164,-2468.43310546875,-0.013091150671244,-0.695406913757324,-0.054337911307812,0.716439247131348,41.277286529541,-48.1187744140625,-2505.88037109375,-0.605184555053711,-0.054242271929979,-0.785362660884857,0.118384771049023
2024/02/23/10:52:13.821423,9222,1708685533,820371338,,2.39785933494568,-0.976468682289124,-0.385854482650757,-102.243682861328,125.126167297363,-19.0257053375244,129.816177368164,-187.081130981445,-2468.34130859375,-0.013644045218825,-0.695460617542267,-0.053720366209746,0.716423392295837,41.1356086730957,-48.1994476318359,-2505.48852539062,-0.605655074119568,-0.053053457289934,-0.784763813018799,0.120470002293587
2024/02/23/10:52:13.870862,9223,1708685533,870466472,,2.3790488243103,-0.972722411155701,-0.460875749588013,-98.9630126953125,121.095314025879,-18.5036792755127,129.881134033203,-187.105346679688,-2468.3896484375,-0.011492996476591,-0.695418357849121,-0.055879633873701,0.716336965560913,41.024787902832,-47.9452056884766,-2505.26000976562,-0.604843556880951,-0.051994733512402,-0.785482168197632,0.120326846837997
2024/02/23/10:52:13.921483,9224,1708685533,920730579,,2.40800976753235,-1.04803061485291,-0.488889455795288,-97.7414398193359,114.157722473145,-18.3175735473633,129.844009399414,-187.10823059082,-2468.44140625,-0.012351714074612,-0.695165932178497,-0.055048584938049,0.716632008552551,41.0849647521973,-48.2745170593262,-2505.40625,-0.604640781879425,-0.052101127803326,-0.785359144210815,0.122089833021164
