time,.header.seq,.header.stamp.secs,.header.stamp.nsecs,.header.frame_id,.fX.data,.fY.data,.fZ.data,.mX.data,.mY.data,.mZ.data,.polaris.position.x,.polaris.position.y,.polaris.position.z,.polaris.orientation.x,.polaris.orientation.y,.polaris.orientation.z,.polaris.orientation.w,.polaristool2.position.x,.polaristool2.position.y,.polaristool2.position.z,.polaristool2.orientation.x,.polaristool2.orientation.y,.polaristool2.orientation.z,.polaristool2.orientation.w
2024/02/23/10:44:41.644696,2132,1708685081,643813914,,2.6041853427886963,-1.5484533309936523,-0.9543116092681885,11.77227783203125,66.51982116699219,-51.10975646972656,135.61984252929688,-89.8539810180664,-2578.040771484375,-0.0053850095719099045,-0.6967612504959106,-0.06006421893835068,0.7147636413574219,48.52037048339844,79.95365142822266,-2575.94677734375,-0.659464955329895,0.018994225189089775,-0.7484255433082581,0.06785577535629272
2024/02/23/10:44:41.694684,2133,1708685081,693875177,,2.670198917388916,-1.480970025062561,-0.9320951700210571,14.277284622192383,66.53839111328125,-53.49318313598633,135.62399291992188,-89.84800720214844,-2578.001220703125,-0.006208028178662062,-0.6969702243804932,-0.05921367183327675,0.7146242260932922,48.642784118652344,79.88448333740234,-2576.9091796875,-0.6564352512359619,0.019203655421733856,-0.7510020732879639,0.06870128214359283
2024/02/23/10:44:41.745119,2134,1708685081,744350305,,2.7255234718322754,-1.4883396625518799,-0.7237319946289062,8.105012893676758,70.96992492675781,-55.09797668457031,135.63034057617188,-89.85668182373047,-2578.111572265625,-0.005324952304363251,-0.6966978311538696,-0.06018851697444916,0.7148154377937317,48.7827262878418,79.73553466796875,-2578.219970703125,-0.6544687151908875,0.01673242449760437,-0.7528674006462097,0.06768546253442764
2024/02/23/10:44:41.794450,2135,1708685081,793854266,,2.7129383087158203,-1.5884250402450562,-0.43795597553253174,-1.4376204013824463,78.99774169921875,-56.562538146972656,135.63381958007812,-89.8611068725586,-2578.150634765625,-0.006307847797870636,-0.6964461803436279,-0.059246767312288284,0.7151312828063965,49.07074737548828,79.48013305664062,-2579.634765625,-0.6522097587585449,0.014334491454064846,-0.7549636960029602,0.06668427586555481
2024/02/23/10:44:41.844672,2136,1708685081,844014414,,2.5207431316375732,-1.5857890844345093,-0.40044254064559937,-11.212986946105957,91.3862533569336,-57.68196487426758,135.63784790039062,-89.86392974853516,-2578.07275390625,-0.00595778226852417,-0.6968845129013062,-0.05958407372236252,0.7146791219711304,49.283607482910156,79.50857543945312,-2580.61083984375,-0.6524286270141602,0.012015008367598057,-0.7551069855690002,0.06329215317964554
2024/02/23/10:44:41.895682,2137,1708685081,894846017,,2.4102563858032227,-1.4493931531906128,-0.6800961494445801,-7.341509819030762,90.96965789794922,-57.065406799316406,135.64688110351562,-89.85460662841797,-2578.146240234375,-0.004875215236097574,-0.6965057849884033,-0.06071072444319725,0.7149617075920105,49.30988693237305,79.0023193359375,-2581.30810546875,-0.6497061848640442,0.010136475786566734,-0.757443904876709,0.06370138376951218
2024/02/23/10:44:41.945661,2138,1708685081,944717013,,2.4987292289733887,-1.41124427318573,-0.9385919570922852,10.839299201965332,73.84781646728516,-57.77247619628906,135.6628875732422,-89.83196258544922,-2578.008056640625,-0.005925627890974283,-0.6970925331115723,-0.05954965204000473,0.7144793272018433,49.23892593383789,78.75959014892578,-2581.77392578125,-0.647239625453949,0.007637305650860071,-0.7597305178642273,0.06190364807844162
2024/02/23/10:44:41.994386,2139,1708685081,993707411,,2.573746919631958,-1.5844327211380005,-0.8373479247093201,16.276445388793945,67.1599349975586,-56.14236068725586,135.67681884765625,-89.83456420898438,-2578.05615234375,-0.005933055188506842,-0.6972098350524902,-0.05961865931749344,0.7143590450286865,49.253849029541016,78.56134796142578,-2582.2783203125,-0.6456881761550903,0.006857489235699177,-0.7610909342765808,0.06148461624979973
2024/02/23/10:44:42.044870,2140,1708685082,44214202,,2.6841297149658203,-1.6672571897506714,-0.7731336951255798,19.00950050354004,68.79474639892578,-52.30595397949219,135.68267822265625,-89.81192779541016,-2578.070556640625,-0.005385067779570818,-0.6969829797744751,-0.060069043189287186,0.7145469784736633,49.3285026550293,78.10245513916016,-2582.469970703125,-0.6468120813369751,0.007478503976017237,-0.759931206703186,0.06389667093753815
2024/02/23/10:44:42.094417,2141,1708685082,93762944,,2.7805843353271484,-1.643363356590271,-0.7542495727539062,19.39263916015625,75.45347595214844,-48.410682678222656,135.6790008544922,-89.82119750976562,-2578.042236328125,-0.006275150924921036,-0.697123110294342,-0.05923471599817276,0.7144727110862732,49.36150360107422,78.04878997802734,-2582.602783203125,-0.6461206078529358,0.00957421027123928,-0.7603158950805664,0.0660022497177124
2024/02/23/10:44:42.144774,2142,1708685082,144061378,,2.761533498764038,-1.6316956281661987,-0.7268257141113281,16.349079132080078,76.31975555419922,-46.88600158691406,135.6795196533203,-89.82249450683594,-2578.086669921875,-0.006017694715410471,-0.696865439414978,-0.05951179563999176,0.7147032618522644,49.291133880615234,78.35260009765625,-2582.25,-0.6458996534347534,0.008552993647754192,-0.7607032656669617,0.0638052448630333
2024/02/23/10:44:42.194291,2143,1708685082,193652284,,2.7232604026794434,-1.7145143747329712,-0.7777983546257019,15.512214660644531,73.1102523803711,-46.53231430053711,135.67388916015625,-89.82727813720703,-2578.163330078125,-0.0053049130365252495,-0.6967487335205078,-0.06031636521220207,0.7147551774978638,49.21984100341797,78.1769790649414,-2581.381103515625,-0.6490118503570557,0.008617364801466465,-0.7579361200332642,0.06513244658708572
2024/02/23/10:44:42.244224,2144,1708685082,243675345,,2.7226991653442383,-1.7200545072555542,-0.7791926860809326,14.156159400939941,70.60539245605469,-46.30537033081055,135.67552185058594,-89.83216857910156,-2578.131591796875,-0.004643163178116083,-0.696733295917511,-0.06097822263836861,0.7147186994552612,49.13528823852539,78.3296127319336,-2581.03271484375,-0.6489957571029663,0.00957840122282505,-0.7578956484794617,0.06562770158052444
2024/02/23/10:44:42.294238,2145,1708685082,293732390,,2.7378857135772705,-1.711523175239563,-0.6833428144454956,11.523709297180176,73.18265533447266,-47.015872955322266,135.67691040039062,-89.81632232666016,-2578.063232421875,-0.00588742783293128,-0.6970295906066895,-0.05966820567846298,0.7145311832427979,49.11121368408203,78.66220092773438,-2580.8642578125,-0.6495645642280579,0.010039880871772766,-0.7575013041496277,0.06447309255599976
2024/02/23/10:44:42.344718,2146,1708685082,344051804,,2.600738763809204,-1.6277347803115845,-0.7662926316261292,10.629440307617188,72.88034057617188,-46.872413635253906,135.6815948486328,-89.82231140136719,-2578.097900390625,-0.006336614023894072,-0.6970680356025696,-0.059209343045949936,0.7145280241966248,48.94099807739258,79.68611145019531,-2580.233154296875,-0.6501330137252808,0.015146481804549694,-0.756975531578064,0.06391976773738861
2024/02/23/10:44:42.394355,2147,1708685082,393555716,,2.5928680896759033,-1.599501609802246,-0.7474693655967712,11.934648513793945,72.10777282714844,-47.23557662963867,135.668212890625,-89.81155395507812,-2578.122802734375,-0.006006093695759773,-0.6966665983200073,-0.059581249952316284,0.7148913741111755,48.90097427368164,79.95626068115234,-2579.9345703125,-0.6512182354927063,0.018203100189566612,-0.7558301091194153,0.06560733914375305
2024/02/23/10:44:42.444270,2148,1708685082,443496940,,2.5478522777557373,-1.62633216381073,-0.6803926229476929,10.490837097167969,77.04263305664062,-46.522972106933594,135.67799377441406,-89.81640625,-2578.189697265625,-0.005058464594185352,-0.6969289779663086,-0.06049366667866707,0.7145662903785706,48.88076400756836,80.65447235107422,-2579.8662109375,-0.6524271965026855,0.020494302734732628,-0.7548884749412537,0.06373482197523117
2024/02/23/10:44:42.494297,2149,1708685082,493651310,,2.4499335289001465,-1.5775158405303955,-0.6573979258537292,6.638084411621094,84.76079559326172,-46.29290008544922,135.673828125,-89.82306671142578,-2578.114990234375,-0.006197775714099407,-0.696910560131073,-0.05934106186032295,0.7146718502044678,48.90338897705078,80.97430419921875,-2579.9931640625,-0.6530061960220337,0.02293071523308754,-0.7542473673820496,0.0645599290728569
2024/02/23/10:44:42.544506,2150,1708685082,543679541,,2.4614098072052,-1.4433369636535645,-0.7850932478904724,11.250333786010742,82.86125946044922,-48.768768310546875,135.66995239257812,-89.81163024902344,-2578.158447265625,-0.005644090939313173,-0.6966140270233154,-0.059908848255872726,0.7149181365966797,48.907440185546875,81.04995727539062,-2580.072509765625,-0.6521392464637756,0.022183652967214584,-0.7550918459892273,0.06370697915554047
2024/02/23/10:44:42.594513,2151,1708685082,593696249,,2.5173115730285645,-1.5193034410476685,-0.7090383768081665,11.19304370880127,81.37226104736328,-49.406368255615234,135.6761474609375,-89.82051849365234,-2578.17529296875,-0.006110248155891895,-0.6968333721160889,-0.059485483914613724,0.7147359251976013,48.97673797607422,80.80484771728516,-2580.346435546875,-0.6514216065406799,0.02025233395397663,-0.7558180689811707,0.06307763606309891
2024/02/23/10:44:42.644226,2152,1708685082,643471278,,2.433962345123291,-1.6559189558029175,-0.5580925941467285,5.060233116149902,90.85807037353516,-52.965301513671875,135.67807006835938,-89.8149642944336,-2578.138916015625,-0.006140385288745165,-0.6968495845794678,-0.059377022087574005,0.714728832244873,49.104496002197266,80.03469848632812,-2580.1416015625,-0.6538709402084351,0.018953051418066025,-0.7535107731819153,0.06568979471921921
2024/02/23/10:44:42.694269,2153,1708685082,693629607,,2.127553939819336,-1.677591323852539,-0.5940482020378113,3.2373602390289307,104.0863265991211,-65.65612030029297,135.67291259765625,-89.81673431396484,-2578.094970703125,-0.006917993538081646,-0.6971033811569214,-0.058701884001493454,0.7145299911499023,49.23442077636719,78.35690307617188,-2579.792724609375,-0.6555817127227783,0.01737278513610363,-0.751353919506073,0.07333538681268692
2024/02/23/10:44:42.744658,2154,1708685082,743724660,,2.044344186782837,-1.6429355144500732,-0.776567816734314,11.689409255981445,100.6458511352539,-74.58680725097656,135.67642211914062,-89.80804443359375,-2578.02734375,-0.007586818188428879,-0.6973360180854797,-0.0579008013010025,0.7143615484237671,49.2045783996582,77.98818969726562,-2579.674072265625,-0.6550471782684326,0.01752004772424698,-0.7515621185302734,0.07589884102344513
2024/02/23/10:44:42.794253,2155,1708685082,793627384,,1.986419916152954,-1.863947868347168,-0.588502049446106,9.887861251831055,100.6279067993164,-80.18905639648438,135.67752075195312,-89.81782531738281,-2578.148681640625,-0.007152336183935404,-0.6966681480407715,-0.058529824018478394,0.7149661183357239,49.30721664428711,77.06710815429688,-2579.7841796875,-0.6554099917411804,0.015991423279047012,-0.750893235206604,0.07963277399539948
2024/02/23/10:44:42.843300,2156,1708685082,842741818,,1.931494951248169,-1.8703398704528809,-0.5910429358482361,7.026100158691406,99.50325012207031,-82.92345428466797,135.67825317382812,-89.81242370605469,-2578.06103515625,-0.006873693782836199,-0.6974418759346008,-0.058557916432619095,0.7142118215560913,49.39211654663086,75.89117431640625,-2580.400146484375,-0.6531723141670227,0.015834856778383255,-0.7521783709526062,0.08569082617759705
2024/02/23/10:44:42.893235,2157,1708685082,892623753,,1.8586162328720093,-1.9288790225982666,-0.41541236639022827,2.4340600967407227,101.75115966796875,-87.29939270019531,135.6793975830078,-89.82667541503906,-2578.17822265625,-0.006494625471532345,-0.696899950504303,-0.058957360684871674,0.7147113680839539,49.38541793823242,76.03052520751953,-2580.743408203125,-0.6527284979820251,0.016520584002137184,-0.7525176405906677,0.08596336096525192
2024/02/23/10:44:42.943247,2158,1708685082,942493291,,1.7875957489013672,-1.750069260597229,-0.6236527562141418,5.680387020111084,96.4590072631836,-88.15222930908203,135.6766815185547,-89.80863189697266,-2578.140869140625,-0.006155024282634258,-0.6970066428184509,-0.059138912707567215,0.7145953178405762,48.75142288208008,75.242431640625,-2581.22314453125,-0.6510539054870605,0.01605731062591076,-0.7536116242408752,0.08910956978797913
2024/02/23/10:44:42.993232,2159,1708685082,992893825,,1.8439757823944092,-1.8406250476837158,-0.6481920480728149,10.362974166870117,86.94967651367188,-85.30630493164062,135.6849822998047,-89.81661987304688,-2578.136962890625,-0.005733943078666925,-0.6969975233078003,-0.059620197862386703,0.7145676612854004,47.95176315307617,74.45201110839844,-2581.912353515625,-0.651524007320404,0.015114686451852322,-0.752881646156311,0.09196293354034424
2024/02/23/10:44:43.043002,2160,1708685083,42451092,,1.7978711128234863,-1.8294426202774048,-0.6826593279838562,10.518043518066406,81.88185119628906,-85.59203338623047,135.68527221679688,-89.81709289550781,-2578.080322265625,-0.007122628390789032,-0.6973863840103149,-0.058091502636671066,0.7143016457557678,46.87066650390625,72.68260955810547,-2583.310546875,-0.6488597393035889,0.012737946584820747,-0.7543224096298218,0.09907805919647217
2024/02/23/10:44:43.093104,2161,1708685083,92519124,,1.9143784046173096,-1.8680013418197632,-0.5033454895019531,8.087129592895508,82.5102310180664,-84.60480499267578,135.68453979492188,-89.8106460571289,-2578.010498046875,-0.005958432797342539,-0.697300910949707,-0.05929845571517944,0.7142965793609619,46.589290618896484,72.03086853027344,-2584.677734375,-0.6483320593833923,0.013062754645943642,-0.7542669773101807,0.10284106433391571
2024/02/23/10:44:43.143313,2162,1708685083,142769011,,1.9513359069824219,-1.834838628768921,-0.5057092308998108,4.077794075012207,89.51008605957031,-79.43689727783203,135.68942260742188,-89.81673431396484,-2578.12646484375,-0.006417264696210623,-0.6970053911209106,-0.058906279504299164,0.7146134972572327,46.66425323486328,72.28106689453125,-2585.456787109375,-0.6477011442184448,0.011143894866108894,-0.7552235126495361,0.09998271614313126
2024/02/23/10:44:43.193254,2163,1708685083,192517220,,2.110306978225708,-1.7263944149017334,-0.8779491186141968,13.735225677490234,81.93582153320312,-76.45973205566406,135.68829345703125,-89.81967163085938,-2578.145263671875,-0.006227834615856409,-0.6971526145935059,-0.059175409376621246,0.7144492268562317,46.789852142333984,72.99010467529297,-2585.728759765625,-0.646255373954773,0.009833797812461853,-0.7568703889846802,0.0969768837094307
2024/02/23/10:44:43.242801,2164,1708685083,242374779,,2.193028450012207,-1.7946844100952148,-0.8582029938697815,17.839319229125977,75.01776123046875,-77.67362213134766,135.69244384765625,-89.82196044921875,-2578.133056640625,-0.0073672751896083355,-0.6970222592353821,-0.05797836557030678,0.7146636843681335,46.79585266113281,72.56686401367188,-2585.8955078125,-0.6457309126853943,0.008554675616323948,-0.7572363018989563,0.09773197770118713
2024/02/23/10:44:43.293848,2165,1708685083,293238021,,2.185861349105835,-1.7916165590286255,-0.8333737850189209,18.986751556396484,72.21052551269531,-77.33484649658203,135.6902313232422,-89.81189727783203,-2578.214599609375,-0.004782817326486111,-0.6966590285301208,-0.06052625924348831,0.714828610420227,46.68631362915039,71.93732452392578,-2586.12890625,-0.6436416506767273,0.00820253137499094,-0.7588835954666138,0.09876180440187454
2024/02/23/10:44:43.344002,2166,1708685083,343266731,,2.153578996658325,-1.8066354990005493,-0.7817379832267761,17.44306182861328,71.8955307006836,-75.97188568115234,135.68734741210938,-89.81346130371094,-2578.084228515625,-0.005501655396074057,-0.6971533298492432,-0.059785667806863785,0.7144036889076233,46.80732727050781,71.00334167480469,-2586.2958984375,-0.6436265110969543,0.005776888690888882,-0.7586899399757385,0.10050419718027115
2024/02/23/10:44:43.393798,2167,1708685083,393230277,,2.199227809906006,-1.8392388820648193,-0.8313978314399719,18.619441986083984,72.03594970703125,-76.50789642333984,135.68727111816406,-89.82836151123047,-2578.1826171875,-0.006974022835493088,-0.6967251300811768,-0.05839720740914345,0.7149232625961304,46.919219970703125,70.04859924316406,-2586.638671875,-0.6436448693275452,0.004294876009225845,-0.7583565711975098,0.1029474288225174
2024/02/23/10:44:43.443818,2168,1708685083,443204162,,2.1041133403778076,-1.8749871253967285,-0.736528754234314,15.261113166809082,75.68743896484375,-77.3787612915039,135.69578552246094,-89.82804107666016,-2578.22607421875,-0.006609340663999319,-0.6969046592712402,-0.05883488431572914,0.7147157788276672,47.017791748046875,68.54670715332031,-2587.0029296875,-0.6428886651992798,0.0009861818980425596,-0.7586556077003479,0.105521559715271
2024/02/23/10:44:43.494357,2169,1708685083,493560251,,2.1212456226348877,-1.8669480085372925,-0.7989840507507324,17.622276306152344,76.6883316040039,-79.1288070678711,135.68875122070312,-89.80398559570312,-2578.101318359375,-0.005154556129127741,-0.6971279382705688,-0.06017426401376724,0.7143983840942383,47.14564514160156,68.03661346435547,-2587.0166015625,-0.6432914137840271,-0.0014921377878636122,-0.7583311200141907,0.10539351403713226
2024/02/23/10:44:43.543812,2170,1708685083,543140864,,2.094264030456543,-1.8608543872833252,-0.7985274791717529,14.290553092956543,78.6094970703125,-80.5481948852539,135.69613647460938,-89.81046295166016,-2578.11279296875,-0.006038379389792681,-0.6971125602722168,-0.05943227559328079,0.7144686579704285,47.03828811645508,67.11997985839844,-2587.334716796875,-0.642975389957428,-0.004572426900267601,-0.7584314942359924,0.10650547593832016
2024/02/23/10:44:43.593803,2171,1708685083,593148829,,2.0830326080322266,-1.8479220867156982,-0.7991926074028015,16.397092819213867,77.31305694580078,-82.24969482421875,135.69635009765625,-89.80846405029297,-2578.18896484375,-0.006507941521704197,-0.6968179941177368,-0.05895424261689186,0.7147913575172424,46.804256439208984,65.946533203125,-2587.857421875,-0.6412619948387146,-0.007723104674369097,-0.7596571445465088,0.10790989547967911
2024/02/23/10:44:43.643992,2172,1708685083,643274451,,2.049482822418213,-1.8967410326004028,-0.7522594928741455,16.62200927734375,78.46256256103516,-83.39632415771484,135.68310546875,-89.8095474243164,-2578.1220703125,-0.006231983657926321,-0.697175145149231,-0.0591452531516552,0.7144297361373901,46.59174728393555,64.48663330078125,-2588.357421875,-0.6414836049079895,-0.010974437929689884,-0.7590004801750183,0.11089018732309341
2024/02/23/10:44:43.694037,2173,1708685083,693140421,,2.0820505619049072,-1.8247634172439575,-0.8788996338844299,23.635255813598633,76.81792449951172,-83.56022644042969,135.68939208984375,-89.81440734863281,-2578.242431640625,-0.005255586467683315,-0.6968258619308472,-0.06021476909518242,0.7146889567375183,46.584259033203125,63.455810546875,-2589.037841796875,-0.6397222876548767,-0.015117940492928028,-0.7604344487190247,0.11075317114591599
2024/02/23/10:44:43.743672,2174,1708685083,743092888,,2.148294448852539,-1.8799114227294922,-0.8070977330207825,25.48267936706543,76.103271484375,-85.4081802368164,135.69046020507812,-89.80819702148438,-2578.062744140625,-0.0054328530095517635,-0.6970231533050537,-0.059848032891750336,0.7145259380340576,46.63518142700195,62.25571823120117,-2589.6806640625,-0.6384969353675842,-0.0182171743363142,-0.7610118985176086,0.11336081475019455
2024/02/23/10:44:43.793660,2175,1708685083,792948307,,2.2146413326263428,-1.8101431131362915,-0.8450434803962708,29.59735679626465,75.04479217529297,-90.13092803955078,135.692138671875,-89.80463409423828,-2578.133544921875,-0.004697308875620365,-0.6968854069709778,-0.060503795742988586,0.7146103382110596,46.7452507019043,60.968379974365234,-2590.827392578125,-0.6355298757553101,-0.02256830222904682,-0.7629445791244507,0.11622422188520432
2024/02/23/10:44:43.843813,2176,1708685083,843080965,,2.289393663406372,-1.8263143301010132,-0.6637969613075256,27.479162216186523,82.072509765625,-96.56147766113281,135.691650390625,-89.81161499023438,-2578.088134765625,-0.005207960959523916,-0.6969625949859619,-0.0600847527384758,0.7145668864250183,47.036861419677734,59.83863067626953,-2592.2431640625,-0.634283721446991,-0.024685202166438103,-0.7632520794868469,0.12050315737724304
2024/02/23/10:44:43.893627,2177,1708685083,892986422,,2.306022882461548,-1.823296308517456,-0.5480014085769653,20.55014991760254,89.09778594970703,-96.78459167480469,135.69808959960938,-89.82361602783203,-2578.214599609375,-0.005535928066819906,-0.6964772939682007,-0.0598948635160923,0.715053379535675,47.09913635253906,59.85066604614258,-2594.0537109375,-0.630663275718689,-0.025656281039118767,-0.7665491700172424,0.11835547536611557
2024/02/23/10:44:43.943715,2178,1708685083,942941133,,2.28304386138916,-1.7192002534866333,-0.5037259459495544,13.795827865600586,90.58169555664062,-93.22573852539062,135.6956787109375,-89.81434631347656,-2578.106201171875,-0.005657769739627838,-0.6969822645187378,-0.05961890518665314,0.7145832777023315,47.20731735229492,60.07566833496094,-2596.06005859375,-0.6285644769668579,-0.026885058730840683,-0.7687614560127258,0.11484681069850922
2024/02/23/10:44:43.993679,2179,1708685083,992982584,,2.2728891372680664,-1.6000080108642578,-0.5457292199134827,9.663167953491211,92.14634704589844,-88.54027557373047,135.70718383789062,-89.80755615234375,-2578.1103515625,-0.005286551080644131,-0.6967105269432068,-0.05998573452234268,0.714820384979248,47.257102966308594,60.51576232910156,-2597.864013671875,-0.6265828609466553,-0.030535060912370682,-0.7713894844055176,0.10686349123716354
2024/02/23/10:44:48.791608,2180,1708685088,790879336,,2.7554187774658203,-2.560607671737671,-0.9429912567138672,34.74360275268555,43.40311813354492,-59.75379943847656,135.80709838867188,-89.94921875,-2577.539794921875,-0.004326634109020233,-0.6946111917495728,-0.060951899737119675,0.7167854905128479,48.61396026611328,32.781288146972656,-2598.333740234375,-0.6167539954185486,-0.08728164434432983,-0.763508677482605,0.1704433560371399
2024/02/23/10:44:48.841970,2181,1708685088,841149983,,2.691739082336426,-2.541712760925293,-0.972135066986084,35.144432067871094,41.30724334716797,-63.551361083984375,135.80206298828125,-89.93875122070312,-2577.55712890625,-0.005494644865393639,-0.6946254372596741,-0.05972350388765335,0.7168670892715454,48.339813232421875,33.443519592285156,-2597.7734375,-0.6178789734840393,-0.0856715515255928,-0.7632328271865845,0.1684090495109558
2024/02/23/10:44:48.891564,2182,1708685088,890920385,,2.666426181793213,-2.569629192352295,-0.7297433614730835,27.226119995117188,50.001426696777344,-64.68551635742188,135.8092041015625,-89.95349884033203,-2577.614990234375,-0.004745644051581621,-0.6944461464881897,-0.060513630509376526,0.7169798612594604,48.24000930786133,33.825435638427734,-2597.643310546875,-0.6191416382789612,-0.08339008688926697,-0.7623713612556458,0.16881822049617767
2024/02/23/10:44:48.941357,2183,1708685088,940641355,,2.6277127265930176,-2.448996067047119,-0.6446712613105774,18.983095169067383,55.34024429321289,-62.54580307006836,135.8173065185547,-89.9441909790039,-2577.6279296875,-0.0051508392207324505,-0.6945422887802124,-0.06013460084795952,0.7169158458709717,48.12752151489258,34.2635383605957,-2596.92578125,-0.6193802952766418,-0.08209075778722763,-0.7625435590744019,0.16779884696006775
2024/02/23/10:44:48.991882,2184,1708685088,990874664,,2.585667610168457,-2.367009401321411,-0.8526124358177185,24.327762603759766,47.75751495361328,-61.573272705078125,135.822998046875,-89.92955780029297,-2577.6201171875,-0.004615199286490679,-0.6943619251251221,-0.06067940220236778,0.7170482873916626,47.89759063720703,34.96864318847656,-2595.729248046875,-0.623258650302887,-0.07901463657617569,-0.7599581480026245,0.16664019227027893
2024/02/23/10:44:49.042368,2185,1708685089,41384980,,2.6163852214813232,-2.3850221633911133,-0.8869456648826599,26.43427276611328,43.26357650756836,-61.563987731933594,135.8204345703125,-89.9222412109375,-2577.692626953125,-0.004461966454982758,-0.6941210031509399,-0.060852717608213425,0.7172677516937256,47.83461380004883,35.02867889404297,-2594.909912109375,-0.6245141625404358,-0.08027203381061554,-0.7590578198432922,0.16543790698051453
2024/02/23/10:44:49.091443,2186,1708685089,90790655,,2.6901917457580566,-2.48403000831604,-0.785239577293396,24.276662826538086,41.62876892089844,-61.50763702392578,135.82223510742188,-89.92405700683594,-2577.532470703125,-0.004714657086879015,-0.6948628425598145,-0.06052599474787712,0.7165751457214355,47.84360122680664,34.9747200012207,-2594.359375,-0.6260756254196167,-0.07998189330101013,-0.7575461268424988,0.16660144925117493
2024/02/23/10:44:49.141414,2187,1708685089,140932701,,2.6887924671173096,-2.3538663387298584,-0.8858247399330139,23.966041564941406,40.051429748535156,-60.99736785888672,135.81927490234375,-89.94115447998047,-2577.656982421875,-0.004853324498981237,-0.6942002177238464,-0.060520753264427185,0.7172166109085083,47.81787872314453,34.813941955566406,-2593.7607421875,-0.6268894672393799,-0.07964912801980972,-0.7566952705383301,0.16756463050842285
2024/02/23/10:44:49.191594,2188,1708685089,191202810,,2.835085391998291,-2.379812002182007,-1.0662442445755005,34.58745574951172,28.91953468322754,-60.095497131347656,135.81521606445312,-89.93026733398438,-2577.625244140625,-0.0053398567251861095,-0.6943493485450745,-0.059950586408376694,0.7171167135238647,47.853023529052734,34.62031555175781,-2593.2587890625,-0.6269868016242981,-0.08025054633617401,-0.756447434425354,0.16803167760372162
2024/02/23/10:44:49.241650,2189,1708685089,240933826,,2.914801597595215,-2.460893392562866,-0.9979696273803711,33.60679626464844,28.12685775756836,-57.3680534362793,135.82870483398438,-89.93779754638672,-2577.664794921875,-0.004624891560524702,-0.6943237781524658,-0.060683056712150574,0.7170848250389099,47.91851806640625,34.49083709716797,-2593.0126953125,-0.626456618309021,-0.0813741534948349,-0.756915807723999,0.16735835373401642
2024/02/23/10:44:49.291506,2190,1708685089,290834661,,2.964954376220703,-2.4482269287109375,-1.0440620183944702,32.92808532714844,26.73700714111328,-55.88051223754883,135.82339477539062,-89.92366027832031,-2577.61474609375,-0.004261734429746866,-0.6944037079811096,-0.061007894575595856,0.7169821262359619,48.44851303100586,34.61867904663086,-2592.616455078125,-0.6274372935295105,-0.0815403014421463,-0.7561789155006409,0.1669343113899231
2024/02/23/10:44:49.341825,2191,1708685089,341335357,,3.1784603595733643,-2.4112608432769775,-1.2136136293411255,39.20576858520508,21.06919288635254,-54.39176940917969,135.81832885742188,-89.93103790283203,-2577.552734375,-0.004640382714569569,-0.6944912672042847,-0.06067121773958206,0.7169235348701477,48.85731506347656,34.491546630859375,-2592.592529296875,-0.6268928647041321,-0.083110012114048,-0.7565620541572571,0.16646897792816162
2024/02/23/10:44:49.391280,2192,1708685089,390619325,,3.225015640258789,-2.549767017364502,-0.9987941980361938,34.761409759521484,23.349533081054688,-53.326995849609375,135.81793212890625,-89.92829132080078,-2577.597412109375,-0.005712573416531086,-0.6945139169692993,-0.059583116322755814,0.7169851064682007,49.096248626708984,33.975830078125,-2592.765380859375,-0.6252804398536682,-0.08477436006069183,-0.7573990225791931,0.16788215935230255
2024/02/23/10:44:49.441549,2193,1708685089,440809902,,3.2309107780456543,-2.5054051876068115,-1.1377993822097778,37.318885803222656,19.469070434570312,-52.853084564208984,135.8225555419922,-89.92127227783203,-2577.614013671875,-0.002745430450886488,-0.694347620010376,-0.06254202127456665,0.7169116735458374,49.0708122253418,33.975685119628906,-2592.40966796875,-0.6260157823562622,-0.08550406247377396,-0.7568973302841187,0.1670321673154831
2024/02/23/10:44:49.491359,2194,1708685089,490733804,,3.2242014408111572,-2.483903408050537,-1.2065846920013428,40.00234603881836,14.836991310119629,-54.080177307128906,135.8143310546875,-89.9246826171875,-2577.629638671875,-0.003868239466100931,-0.6941373944282532,-0.06142721325159073,0.7172064185142517,48.92494201660156,34.229591369628906,-2591.925537109375,-0.627140998840332,-0.08470945805311203,-0.7561659812927246,0.16652755439281464
2024/02/23/10:44:49.541784,2195,1708685089,541093306,,3.0984649658203125,-2.594085693359375,-1.08940851688385,37.213558197021484,18.076034545898438,-57.772064208984375,135.81637573242188,-89.93343353271484,-2577.649169921875,-0.0053304461762309074,-0.6941757202148438,-0.06000522896647453,0.7172802686691284,48.783470153808594,34.498653411865234,-2591.639404296875,-0.6298805475234985,-0.08362571895122528,-0.7541492581367493,0.16587971150875092
2024/02/23/10:44:49.591803,2196,1708685089,591004946,,3.0392231941223145,-2.59658145904541,-1.0909924507141113,36.12548828125,26.144214630126953,-58.50559997558594,135.81692504882812,-89.94001007080078,-2577.572998046875,-0.004796779714524746,-0.6944541335105896,-0.06051154062151909,0.7169719338417053,48.948570251464844,34.198368072509766,-2592.4140625,-0.6283338665962219,-0.08472252637147903,-0.7552489638328552,0.16618555784225464
2024/02/23/10:44:49.641624,2197,1708685089,640927662,,3.093540906906128,-2.7134392261505127,-0.8151451349258423,29.33306884765625,37.14512252807617,-57.51612091064453,135.814697265625,-89.93224334716797,-2577.578857421875,-0.004017752129584551,-0.6943390369415283,-0.06122972071170807,0.7170272469520569,49.22455596923828,33.76767349243164,-2593.421875,-0.6268119215965271,-0.08660782873630524,-0.7560892105102539,0.16713783144950867
2024/02/23/10:44:49.691429,2198,1708685089,690666030,,3.074599266052246,-2.6316142082214355,-0.8124980926513672,25.523488998413086,44.758460998535156,-56.34945297241211,135.81988525390625,-89.94774627685547,-2577.548828125,-0.004880703054368496,-0.6945089101791382,-0.06043632701039314,0.7169246673583984,49.539154052734375,33.14078903198242,-2594.465087890625,-0.6240785717964172,-0.08897904306650162,-0.7578123807907104,0.16831229627132416
2024/02/23/10:44:49.741466,2199,1708685089,740774021,,3.1350884437561035,-2.5965142250061035,-0.9057122468948364,33.80420684814453,43.430152893066406,-58.618038177490234,135.81112670898438,-89.93721008300781,-2577.522705078125,-0.004253138788044453,-0.694499135017395,-0.060994263738393784,0.7168909311294556,49.78581237792969,32.684574127197266,-2595.68798828125,-0.6214752793312073,-0.08882555365562439,-0.759309709072113,0.1712520271539688
2024/02/23/10:44:49.791496,2200,1708685089,790801832,,3.227149724960327,-2.644660472869873,-0.8331061601638794,36.21626281738281,46.72127151489258,-59.60650634765625,135.81573486328125,-89.92713165283203,-2577.589599609375,-0.00432882783934474,-0.6944352984428406,-0.06090104952454567,0.7169601917266846,50.03375244140625,32.3485107421875,-2596.61328125,-0.6199031472206116,-0.08959072083234787,-0.7601526975631714,0.17280487716197968
2024/02/23/10:44:49.841259,2201,1708685089,840671989,,3.2206897735595703,-2.789038896560669,-0.5424344539642334,25.893108367919922,58.21992492675781,-59.199851989746094,135.81353759765625,-89.94037628173828,-2577.542236328125,-0.004605290479958057,-0.6945986747741699,-0.06067332997918129,0.7168195843696594,50.206809997558594,32.31501007080078,-2597.26123046875,-0.6195767521858215,-0.09033139795064926,-0.7603738307952881,0.17261694371700287
2024/02/23/10:44:49.891398,2202,1708685089,890653983,,3.0718510150909424,-2.6844215393066406,-0.6564880609512329,19.49932098388672,66.6691665649414,-59.8714485168457,135.81170654296875,-89.93524169921875,-2577.62841796875,-0.004144112579524517,-0.6943286657333374,-0.06113647669553757,0.7170445322990417,50.1900520324707,32.568824768066406,-2597.1611328125,-0.6211557388305664,-0.08992154151201248,-0.7593691349029541,0.17157545685768127
2024/02/23/10:44:49.941346,2203,1708685089,940617841,,3.0721418857574463,-2.6684603691101074,-0.6022455096244812,17.370023727416992,71.0678482055664,-61.64213562011719,135.8184051513672,-89.94422149658203,-2577.570556640625,-0.005436616018414497,-0.6946322917938232,-0.05981147661805153,0.7168534994125366,50.18268966674805,32.703697204589844,-2597.01025390625,-0.6225833296775818,-0.09037391096353531,-0.7584440112113953,0.17025057971477509
2024/02/23/10:44:49.991121,2204,1708685089,990460457,,3.0443122386932373,-2.5397188663482666,-0.849219799041748,22.08342742919922,70.9100112915039,-60.132965087890625,135.81117248535156,-89.93189239501953,-2577.63818359375,-0.004386167041957378,-0.6942111849784851,-0.06085079163312912,0.7171811461448669,50.12787628173828,32.67611312866211,-2596.61279296875,-0.6246788501739502,-0.08955737948417664,-0.7568280696868896,0.17019712924957275
2024/02/23/10:44:50.041368,2205,1708685090,40721855,,3.12715482711792,-2.759695529937744,-0.7045087814331055,25.13765525817871,71.14898681640625,-56.18199920654297,135.81732177734375,-89.94778442382812,-2577.56689453125,-0.005149282049387693,-0.6945400238037109,-0.06007273495197296,0.7169232368469238,50.06117630004883,32.38060760498047,-2596.56396484375,-0.625634491443634,-0.09056604653596878,-0.7559736967086792,0.16995026171207428
2024/02/23/10:44:50.091164,2206,1708685090,90507943,,3.055910587310791,-2.7756845951080322,-0.6898821592330933,20.72760009765625,75.9562759399414,-53.94839859008789,135.81275939941406,-89.94631958007812,-2577.57763671875,-0.005242608021944761,-0.6945391297340393,-0.060001760721206665,0.7169293761253357,49.956661224365234,32.17887878417969,-2595.95703125,-0.6276258826255798,-0.09104928374290466,-0.7541832327842712,0.17030398547649384
2024/02/23/10:44:50.141148,2207,1708685090,140498671,,3.0778777599334717,-2.7674691677093506,-0.7855174541473389,23.024030685424805,72.00933837890625,-52.447265625,135.81942749023438,-89.93590545654297,-2577.550048828125,-0.0047813355922698975,-0.6946732997894287,-0.06041738763451576,0.7167677283287048,49.81449508666992,32.30961608886719,-2595.143310546875,-0.6302621364593506,-0.09126071631908417,-0.7522416710853577,0.16903731226921082
2024/02/23/10:44:50.191325,2208,1708685090,190698834,,3.0871660709381104,-2.7622339725494385,-0.7434194087982178,20.556854248046875,72.0008773803711,-53.599632263183594,135.818115234375,-89.9333724975586,-2577.517333984375,-0.004448662046343088,-0.69461989402771,-0.06081279739737511,0.716788113117218,49.669403076171875,32.742427825927734,-2594.83984375,-0.6312364935874939,-0.09051442891359329,-0.7518864870071411,0.16737474501132965
2024/02/23/10:44:50.241275,2209,1708685090,240574947,,3.046520948410034,-2.717066764831543,-0.6003370881080627,12.356059074401855,80.10020446777344,-55.355064392089844,135.81956481933594,-89.94312286376953,-2577.48388671875,-0.005205658730119467,-0.6947975158691406,-0.05999511107802391,0.7166798114776611,49.6547966003418,33.109195709228516,-2595.4326171875,-0.6308171153068542,-0.09035814553499222,-0.7525037527084351,0.16626273095607758
2024/02/23/10:44:50.291498,2210,1708685090,290581654,,3.0728797912597656,-2.6171300411224365,-0.6796839237213135,12.163318634033203,84.12825012207031,-55.984039306640625,135.81085205078125,-89.93938446044922,-2577.58642578125,-0.004834541119635105,-0.6943196654319763,-0.060368169099092484,0.7171140313148499,49.932098388671875,32.74256134033203,-2596.5986328125,-0.6275035738945007,-0.091217041015625,-0.7547249794006348,0.16825254261493683
2024/02/23/10:44:50.341548,2211,1708685090,340595730,,3.221534013748169,-2.6321732997894287,-0.8505017757415771,21.768291473388672,78.98534393310547,-51.02735137939453,135.81735229492188,-89.9478530883789,-2577.664306640625,-0.0031753238290548325,-0.6941539645195007,-0.0621434710919857,0.717132031917572,50.374908447265625,31.68499183654785,-2597.674560546875,-0.6247929334640503,-0.09249120950698853,-0.755838930606842,0.17258842289447784
2024/02/23/10:44:50.391171,2212,1708685090,390602050,,3.333475112915039,-2.760807991027832,-0.9717023372650146,35.46430969238281,66.96562194824219,-52.56179428100586,135.80506896972656,-89.955810546875,-2577.64599609375,-0.00338609772734344,-0.6941961646080017,-0.06193646788597107,0.7171081304550171,50.73173522949219,30.921520233154297,-2598.4384765625,-0.6221574544906616,-0.09424431622028351,-0.7571117877960205,0.17555595934391022
2024/02/23/10:44:50.839731,2213,1708685090,839433711,,3.1282410621643066,-2.9870645999908447,-0.8456219434738159,13.718700408935547,84.70242309570312,-51.46825408935547,135.77215576171875,-89.99183654785156,-2577.436279296875,-0.0038770611863583326,-0.6945004463195801,-0.06138734146952629,0.7168582081794739,51.82073974609375,29.92424774169922,-2598.482421875,-0.6173995733261108,-0.09716977924108505,-0.7598796486854553,0.1787702441215515
2024/02/23/10:44:50.890537,2214,1708685090,889822763,,3.0980687141418457,-3.0729334354400635,-0.7163297533988953,12.227879524230957,82.78044128417969,-53.36315155029297,135.80126953125,-89.95820617675781,-2577.49072265625,-0.005170181859284639,-0.6945189833641052,-0.06007901951670647,0.7169429659843445,51.71172332763672,30.036684036254883,-2598.212158203125,-0.6189777255058289,-0.09757076948881149,-0.7588315010070801,0.17754220962524414
2024/02/23/10:44:50.940378,2215,1708685090,939827230,,3.0702784061431885,-2.9114770889282227,-0.8768595457077026,16.8133544921875,76.01199340820312,-53.55302810668945,135.82974243164062,-89.94146728515625,-2577.52685546875,-0.005136805586516857,-0.6949941515922546,-0.0601126104593277,0.7164797186851501,51.476890563964844,30.231937408447266,-2598.2392578125,-0.618942379951477,-0.09777970612049103,-0.7592564821243286,0.17572438716888428
2024/02/23/10:44:50.990430,2216,1708685090,989682340,,3.073087453842163,-2.9563820362091064,-0.8836508989334106,20.46851348876953,70.98829650878906,-53.519779205322266,135.83416748046875,-89.92967224121094,-2577.531982421875,-0.004481540061533451,-0.6948660016059875,-0.06073344126343727,0.7165560722351074,51.314083099365234,30.695236206054688,-2598.22705078125,-0.6187092661857605,-0.09622659534215927,-0.759758710861206,0.17523124814033508
2024/02/23/10:44:51.040231,2217,1708685091,39667892,,3.103792190551758,-2.9824769496917725,-0.9360911846160889,21.292564392089844,67.41624450683594,-55.85903549194336,135.82809448242188,-89.92986297607422,-2577.57177734375,-0.003924407996237278,-0.6945810914039612,-0.06123648211359978,0.7167927026748657,51.37318420410156,30.725629806518555,-2598.218505859375,-0.6189899444580078,-0.09665186703205109,-0.7592642307281494,0.17614704370498657
2024/02/23/10:44:51.090636,2218,1708685091,90014619,,3.1616711616516113,-3.029245615005493,-0.8837716579437256,21.45695686340332,64.0652084350586,-56.719207763671875,135.80215454101562,-89.96794128417969,-2577.491455078125,-0.004587877541780472,-0.6947163939476013,-0.06058311089873314,0.7167132496833801,51.27370071411133,30.979015350341797,-2598.234619140625,-0.6184936761856079,-0.09676496684551239,-0.7600238919258118,0.17454475164413452
2024/02/23/10:44:51.141356,2219,1708685091,140480700,,3.1011881828308105,-3.0175797939300537,-0.6622729301452637,11.093711853027344,67.97862243652344,-58.95248031616211,135.7753143310547,-89.98695373535156,-2577.544921875,-0.004747991915792227,-0.6943566799163818,-0.0604376457631588,0.7170729041099548,51.1015510559082,31.592742919921875,-2598.1201171875,-0.6183594465255737,-0.09685193002223969,-0.7607334852218628,0.1718597114086151
2024/02/23/10:44:51.190635,2220,1708685091,190036788,,2.998728036880493,-2.956714630126953,-0.5609050393104553,2.4069478511810303,70.98914337158203,-61.207481384277344,135.7774658203125,-89.99880981445312,-2577.461669921875,-0.004093687515705824,-0.6947110891342163,-0.0611078254878521,0.7166767120361328,50.843589782714844,32.16619110107422,-2597.552490234375,-0.6200551986694336,-0.09626064449548721,-0.7600204348564148,0.1692170351743698
2024/02/23/10:44:51.239968,2221,1708685091,239345305,,2.861379384994507,-2.9310309886932373,-0.6329181790351868,-1.5255579948425293,71.40569305419922,-61.39251708984375,135.7816925048828,-89.98089599609375,-2577.465087890625,-0.004915387835353613,-0.6945130228996277,-0.06027008220553398,0.7169345021247864,50.6044807434082,32.632659912109375,-2596.962158203125,-0.621662437915802,-0.09485631436109543,-0.759158194065094,0.16797903180122375
2024/02/23/10:44:51.290820,2222,1708685091,290093352,,2.9156227111816406,-2.8955535888671875,-0.8219321966171265,4.4475507736206055,65.98625183105469,-58.26615905761719,135.79537963867188,-89.97037506103516,-2577.571044921875,-0.0038312883116304874,-0.6942967772483826,-0.061422254890203476,0.7170527577400208,50.62970733642578,32.45055389404297,-2596.74462890625,-0.6219021677970886,-0.0957627221941948,-0.7589793801307678,0.16738425195217133
2024/02/23/10:44:51.340546,2223,1708685091,339966311,,2.991349935531616,-3.0500357151031494,-0.7213210463523865,3.401851177215576,67.94429779052734,-55.05670166015625,135.80706787109375,-89.95118713378906,-2577.5908203125,-0.004999884404242039,-0.6945421695709229,-0.060218337923288345,0.7169099450111389,50.8784065246582,31.922588348388672,-2596.896484375,-0.6210934519767761,-0.0984291359782219,-0.759258508682251,0.16757437586784363
2024/02/23/10:44:51.390227,2224,1708685091,389578620,,3.028120994567871,-3.0304219722747803,-0.8119931817054749,4.807833194732666,68.44947052001953,-52.17512512207031,135.80166625976562,-89.96827697753906,-2577.634521484375,-0.004656604025512934,-0.6942240595817566,-0.06065256893634796,0.7171837687492371,50.99870681762695,31.545822143554688,-2597.0625,-0.6209596395492554,-0.09944286197423935,-0.759047269821167,0.1684265285730362
2024/02/23/10:44:51.440832,2225,1708685091,440040969,,3.0379369258880615,-3.0490059852600098,-0.8014062643051147,5.076983451843262,68.33196258544922,-52.84021759033203,135.80307006835938,-89.95604705810547,-2577.426025390625,-0.005098202731460333,-0.6949085593223572,-0.06003883481025696,0.7165692448616028,50.995967864990234,31.536874771118164,-2597.156005859375,-0.6214678883552551,-0.09970196336507797,-0.7586219906806946,0.16831475496292114
2024/02/23/10:44:51.490605,2226,1708685091,490047449,,3.040072202682495,-3.011218309402466,-0.8681188821792603,6.565845012664795,65.53439331054688,-53.35630798339844,135.7904052734375,-89.96815490722656,-2577.539306640625,-0.003833626164123416,-0.6943612098693848,-0.061413608491420746,0.7169910669326782,50.99994659423828,31.50412368774414,-2597.22998046875,-0.6206880807876587,-0.09953709691762924,-0.7591724991798401,0.16880673170089722
2024/02/23/10:44:51.540749,2227,1708685091,539997859,,3.0618996620178223,-3.08475399017334,-0.8652272820472717,8.61433219909668,63.882408142089844,-51.722618103027344,135.7920379638672,-89.9777603149414,-2577.603271484375,-0.004610033240169287,-0.6942338347434998,-0.060666218400001526,0.7171733975410461,51.1015625,31.180805206298828,-2597.299560546875,-0.6204971671104431,-0.10022686421871185,-0.7591283321380615,0.16929860413074493
2024/02/23/10:44:51.590975,2228,1708685091,590344028,,3.0467288494110107,-3.066577434539795,-0.9374123215675354,10.615206718444824,62.39311218261719,-50.76216125488281,135.801025390625,-89.96856689453125,-2577.52734375,-0.003865896724164486,-0.6945558190345764,-0.06130862981081009,0.7168113589286804,51.131813049316406,31.015249252319336,-2597.42919921875,-0.6199784278869629,-0.10104183852672577,-0.7595289349555969,0.1689174622297287
2024/02/23/10:44:51.640859,2229,1708685091,640100806,,3.048861026763916,-3.0709543228149414,-0.9098602533340454,11.263936996459961,60.849544525146484,-52.85637664794922,135.79373168945312,-89.96176147460938,-2577.50537109375,-0.0038406651001423597,-0.6944438815116882,-0.061381686478853226,0.7169137001037598,51.114654541015625,31.169906616210938,-2597.691162109375,-0.6198850274085999,-0.10209498554468155,-0.7598307132720947,0.16726160049438477
2024/02/23/10:44:51.691086,2230,1708685091,690335730,,3.02176833152771,-3.008286952972412,-0.8788897395133972,8.953082084655762,63.4368782043457,-54.897037506103516,135.79678344726562,-89.96637725830078,-2577.4765625,-0.004401413258165121,-0.694739818572998,-0.06080647557973862,0.7166727185249329,51.173072814941406,31.17949867248535,-2598.195068359375,-0.6183987855911255,-0.10200729221105576,-0.7610020637512207,0.1674911230802536
2024/02/23/10:44:52.190635,2231,1708685092,189989554,,2.988154649734497,-2.975248098373413,-0.9436028003692627,11.279151916503906,60.311676025390625,-56.536991119384766,135.79522705078125,-89.96609497070312,-2577.56005859375,-0.00407617911696434,-0.6945161819458008,-0.06113441288471222,0.7168634533882141,51.117347717285156,31.34928321838379,-2598.400634765625,-0.6179754734039307,-0.10168621689081192,-0.7615193128585815,0.16689708828926086
2024/02/23/10:44:52.240623,2232,1708685092,239798085,,2.994006633758545,-3.002976179122925,-0.9801945686340332,13.281289100646973,58.80436706542969,-56.02494430541992,135.79342651367188,-89.9817886352539,-2577.578369140625,-0.004624572582542896,-0.6942023038864136,-0.06072208657860756,0.7171991467475891,51.13890075683594,31.273120880126953,-2598.41357421875,-0.6175290942192078,-0.10197866708040237,-0.7618275880813599,0.1669636368751526
2024/02/23/10:44:52.290373,2233,1708685092,289750643,,3.02846097946167,-2.998887777328491,-0.9877761602401733,13.90997314453125,58.388187408447266,-56.02398681640625,135.78717041015625,-89.96961212158203,-2577.50390625,-0.004452497232705355,-0.6945013403892517,-0.06076503172516823,0.7169069647789001,51.1707763671875,31.155994415283203,-2598.4072265625,-0.6179419755935669,-0.10170140862464905,-0.7613058686256409,0.16798196732997894
2024/02/23/10:44:52.390380,2234,1708685092,389697874,,3.0805928707122803,-3.02411150932312,-0.9638804793357849,13.603520393371582,59.65327835083008,-54.460472106933594,135.7936248779297,-89.9645767211914,-2577.45703125,-0.004867556504905224,-0.694635808467865,-0.060263823717832565,0.7168163657188416,51.335880279541016,30.772541046142578,-2598.507080078125,-0.6174484491348267,-0.1031031608581543,-0.7613582015037537,0.16870340704917908
2024/02/23/10:44:53.340109,2235,1708685093,339420967,,3.105236053466797,-2.992868423461914,-1.0903815031051636,19.957611083984375,51.36529541015625,-57.14439010620117,135.7786407470703,-89.97960662841797,-2577.491455078125,-0.0052953618578612804,-0.69452303647995,-0.05979646369814873,0.7169617414474487,51.300724029541016,30.780364990234375,-2598.498046875,-0.6171772480010986,-0.10353837162256241,-0.7616085410118103,0.16829892992973328
2024/02/23/10:44:53.389936,2236,1708685093,389076780,,3.1139583587646484,-2.969219923019409,-1.109774112701416,20.03740119934082,51.176971435546875,-57.76321029663086,135.77142333984375,-89.98211669921875,-2577.4052734375,-0.0043076337315142155,-0.6945300102233887,-0.060902468860149384,0.7168684601783752,51.28532791137695,30.82773208618164,-2598.507568359375,-0.617059051990509,-0.10323116183280945,-0.7616687417030334,0.16864819824695587
2024/02/23/10:44:53.490090,2237,1708685093,489384056,,3.124338150024414,-2.991399049758911,-1.0990712642669678,19.751985549926758,51.98096466064453,-56.496761322021484,135.77459716796875,-89.99380493164062,-2577.494873046875,-0.004115454386919737,-0.6944246292114258,-0.06114676594734192,0.7169508934020996,51.28366470336914,30.732311248779297,-2598.36474609375,-0.6175049543380737,-0.10420369356870651,-0.7613764405250549,0.16773511469364166
2024/02/23/10:44:54.438586,2238,1708685094,438037456,,3.0292816162109375,-2.9888460636138916,-1.0912799835205078,17.3814697265625,49.11098861694336,-57.883121490478516,135.76473999023438,-89.9924087524414,-2577.396484375,-0.005224369931966066,-0.6946356296539307,-0.059947941452264786,0.7168405055999756,51.226009368896484,30.811031341552734,-2598.419921875,-0.6171575784683228,-0.10529782623052597,-0.7619180679321289,0.16586045920848846
2024/02/23/10:44:54.589360,2239,1708685094,588718078,,3.1270291805267334,-3.0396366119384766,-1.1174530982971191,19.541427612304688,48.319923400878906,-54.85872268676758,135.7733917236328,-89.99130249023438,-2577.533203125,-0.0032639128621667624,-0.6942002773284912,-0.0619070790708065,0.7171072959899902,51.38212966918945,30.422407150268555,-2598.56640625,-0.615752637386322,-0.10641808807849884,-0.762745201587677,0.1665642410516739
2024/02/23/10:44:54.639216,2240,1708685094,638534335,,3.083892822265625,-3.0336925983428955,-1.134290099143982,19.63726806640625,48.19147872924805,-55.54110336303711,135.77197265625,-89.99751281738281,-2577.426513671875,-0.0044249980710446835,-0.6946430206298828,-0.06077132746577263,0.7167693376541138,51.27946472167969,30.5967960357666,-2598.254150390625,-0.6171069145202637,-0.10601060837507248,-0.7618598341941833,0.16586245596408844
2024/02/23/10:44:54.689644,2241,1708685094,689079363,,3.0322046279907227,-2.9733216762542725,-1.1551165580749512,18.182979583740234,49.048683166503906,-57.19526672363281,135.77499389648438,-89.99004364013672,-2577.57080078125,-0.003792892210185528,-0.6941725015640259,-0.06141228973865509,0.7171741127967834,51.18555450439453,30.798261642456055,-2598.2041015625,-0.6171567440032959,-0.10602468997240067,-0.7620571851730347,0.16475799679756165
2024/02/23/10:44:54.739290,2242,1708685094,738581723,,3.055028200149536,-2.9874298572540283,-1.1205838918685913,19.496440887451172,47.67454528808594,-57.56110763549805,135.77297973632812,-89.99483489990234,-2577.4189453125,-0.0052328831516206264,-0.6947653889656067,-0.060010891407728195,0.7167093753814697,51.24333953857422,30.633197784423828,-2598.2724609375,-0.617359459400177,-0.1059749498963356,-0.7617018818855286,0.16567085683345795
2024/02/23/10:44:54.788355,2243,1708685094,787788707,,3.0411176681518555,-3.034184694290161,-1.0678293704986572,17.104629516601562,50.68318176269531,-56.642696380615234,135.77427673339844,-89.99295043945312,-2577.4541015625,-0.004689857829362154,-0.6945058107376099,-0.0604991652071476,0.7169236540794373,51.264896392822266,30.638137817382812,-2598.33740234375,-0.6167298555374146,-0.10582831501960754,-0.762186586856842,0.16588042676448822
2024/02/23/10:44:54.839134,2244,1708685094,838554787,,3.022989273071289,-2.99041748046875,-1.1199853420257568,17.75,49.900352478027344,-56.974605560302734,135.78179931640625,-89.98497009277344,-2577.54638671875,-0.004185506608337164,-0.6943240761756897,-0.06096161901950836,0.7170636653900146,51.21920394897461,30.69224739074707,-2598.1357421875,-0.6169561743736267,-0.10595860332250595,-0.7621040344238281,0.16533367335796356
2024/02/23/10:44:54.888491,2245,1708685094,888105831,,3.0044705867767334,-3.000551700592041,-1.144292950630188,18.175704956054688,48.61640548706055,-57.0771484375,135.77621459960938,-89.99468231201172,-2577.55029296875,-0.004597734659910202,-0.6944301724433899,-0.06064021214842796,0.7169855833053589,51.18056869506836,30.68532943725586,-2597.933349609375,-0.618033766746521,-0.1053742915391922,-0.7612020373344421,0.16583730280399323
2024/02/23/10:44:54.939331,2246,1708685094,938771656,,3.0246944427490234,-3.019033432006836,-1.1926928758621216,20.208770751953125,46.07603454589844,-55.82377624511719,135.77862548828125,-89.99185180664062,-2577.472900390625,-0.004867644049227238,-0.6945613026618958,-0.060288332402706146,0.7168864607810974,51.17106628417969,30.572669982910156,-2597.58251953125,-0.618751049041748,-0.1061960905790329,-0.7605749368667603,0.16551527380943298
2024/02/23/10:44:54.988268,2247,1708685094,987734079,,3.06158185005188,-3.019038438796997,-1.2664539813995361,23.270492553710938,43.33870315551758,-54.265872955322266,135.7684326171875,-89.99855041503906,-2577.452880859375,-0.005139199085533619,-0.6945111155509949,-0.06012257561087608,0.716947078704834,51.18114471435547,30.41570281982422,-2597.465087890625,-0.6191130876541138,-0.1054818257689476,-0.760083019733429,0.16687235236167908
2024/02/23/10:44:55.038866,2248,1708685095,38428195,,3.1161575317382812,-3.068329095840454,-1.241309642791748,24.311424255371094,42.00371170043945,-53.82949447631836,135.7689208984375,-89.99568176269531,-2577.41064453125,-0.004153711721301079,-0.6945682764053345,-0.061086516827344894,0.7168166041374207,51.22383117675781,30.292179107666016,-2597.35986328125,-0.6191012859344482,-0.1063544973731041,-0.7599790096282959,0.1668359488248825
2024/02/23/10:44:55.089050,2249,1708685095,88461438,,3.117731809616089,-3.086383104324341,-1.2501894235610962,23.631046295166016,42.47835159301758,-53.10260772705078,135.7638397216797,-89.99359130859375,-2577.53857421875,-0.0053349812515079975,-0.6943690180778503,-0.05983217433094978,0.7171076536178589,51.260711669921875,30.198253631591797,-2597.281005859375,-0.6184895634651184,-0.10686653852462769,-0.7604494094848633,0.16663409769535065
2024/02/23/10:44:55.139175,2250,1708685095,138572961,,3.118204355239868,-3.0927255153656006,-1.284003734588623,24.543960571289062,41.24830627441406,-52.432640075683594,135.76913452148438,-89.99029541015625,-2577.4208984375,-0.005577852483838797,-0.6945452094078064,-0.05957680568099022,0.716956377029419,51.22798156738281,30.218284606933594,-2597.035888671875,-0.6190481185913086,-0.10706043243408203,-0.7600452899932861,0.1662788987159729
2024/02/23/10:44:55.188245,2251,1708685095,187918014,,3.127476453781128,-3.1010968685150146,-1.3106307983398438,25.44805908203125,39.475730895996094,-52.069862365722656,135.77328491210938,-89.9957046508789,-2577.510986328125,-0.004580730572342873,-0.6945250630378723,-0.06059641018509865,0.7168974876403809,51.242706298828125,30.07331657409668,-2596.729248046875,-0.619901716709137,-0.10825926065444946,-0.7592674493789673,0.16587571799755096
2024/02/23/10:44:55.238968,2252,1708685095,238502934,,3.146942615509033,-3.1686151027679443,-1.2752643823623657,25.42818260192871,38.96160125732422,-50.57912063598633,135.76663208007812,-89.99894714355469,-2577.525390625,-0.00369140668772161,-0.6943273544311523,-0.061540987342596054,0.7170136570930481,51.26091766357422,29.977468490600586,-2596.693359375,-0.6198439002037048,-0.10804444551467896,-0.7592300772666931,0.16640198230743408
2024/02/23/10:44:55.289146,2253,1708685095,288563873,,3.096484661102295,-3.173888921737671,-1.2629972696304321,23.290409088134766,40.2791748046875,-51.252803802490234,135.76956176757812,-89.99568176269531,-2577.520751953125,-0.0036311333533376455,-0.6944923400878906,-0.061566680669784546,0.7168519496917725,51.232295989990234,30.073528289794922,-2596.6923828125,-0.61931312084198,-0.10870174318552017,-0.7598509192466736,0.16511130332946777
2024/02/23/10:44:55.339067,2254,1708685095,338448260,,3.1189541816711426,-3.132810592651367,-1.2944049835205078,23.949188232421875,38.822174072265625,-51.70669174194336,135.76255798339844,-89.99580383300781,-2577.377685546875,-0.0040021673776209354,-0.6946277618408203,-0.061223823577165604,0.7167481780052185,51.27393341064453,29.900802612304688,-2596.599853515625,-0.6193318367004395,-0.10874070972204208,-0.7596158981323242,0.16609403491020203
2024/02/23/10:44:55.389451,2255,1708685095,388743074,,3.1679396629333496,-3.168107748031616,-1.2974296808242798,26.25849151611328,37.00395965576172,-50.146175384521484,135.76956176757812,-90.0053939819336,-2577.445556640625,-0.0030562779866158962,-0.6942987442016602,-0.062222905457019806,0.7169855237007141,51.40715408325195,29.6093807220459,-2596.694091796875,-0.6186826229095459,-0.1093173697590828,-0.7598580121994019,0.16702492535114288
2024/02/23/10:44:55.439295,2256,1708685095,438205058,,3.192343235015869,-3.19543719291687,-1.2650549411773682,26.26349639892578,36.81932830810547,-49.53252410888672,135.76791381835938,-89.99401092529297,-2577.457763671875,-0.003112355014309287,-0.6943185329437256,-0.062127865850925446,0.7169743776321411,51.4454460144043,29.552175521850586,-2596.7783203125,-0.6180129051208496,-0.10898751765489578,-0.7602899074554443,0.16775301098823547
2024/02/23/10:44:55.489286,2257,1708685095,488617755,,3.1763689517974854,-3.1720328330993652,-1.2534173727035522,26.121051788330078,36.652000427246094,-50.69697189331055,135.76919555664062,-90.00178527832031,-2577.419677734375,-0.004225298762321472,-0.6945592164993286,-0.06101168319582939,0.716831386089325,51.3916015625,29.707351684570312,-2596.8623046875,-0.6179746985435486,-0.10898508131504059,-0.7605162262916565,0.16686691343784332
2024/02/23/10:44:55.539219,2258,1708685095,538568967,,3.141953229904175,-3.132643461227417,-1.2199511528015137,24.524311065673828,38.28763961791992,-53.08415222167969,135.774169921875,-89.9941635131836,-2577.468994140625,-0.0036512420047074556,-0.6942735314369202,-0.061531975865364075,0.717066764831543,51.36363983154297,29.828664779663086,-2596.985595703125,-0.6182559132575989,-0.10856259614229202,-0.7603621482849121,0.1668027937412262
2024/02/23/10:44:55.589503,2259,1708685095,588562532,,3.1243677139282227,-3.1454572677612305,-1.1215739250183105,21.60477638244629,41.08967208862305,-54.363800048828125,135.77645874023438,-89.99381256103516,-2577.4755859375,-0.003835007781162858,-0.6944541931152344,-0.06135931238532066,0.7169056534767151,51.41448211669922,29.890155792236328,-2597.327392578125,-0.6168952584266663,-0.10873215645551682,-0.7615333199501038,0.16638687252998352
2024/02/23/10:44:55.639376,2260,1708685095,638670326,,3.0934314727783203,-3.126384973526001,-1.110327124595642,19.253528594970703,43.439552307128906,-54.03351593017578,135.77525329589844,-89.99595642089844,-2577.460693359375,-0.0036974099930375814,-0.6945229172706604,-0.0614934079349041,0.7168282866477966,51.392845153808594,29.945362091064453,-2597.356689453125,-0.6169414520263672,-0.10884929448366165,-0.7615728378295898,0.1659574806690216
2024/02/23/10:44:55.689322,2261,1708685095,688608281,,3.0899345874786377,-3.094604730606079,-1.1629847288131714,20.182083129882812,42.195716857910156,-54.49153518676758,135.76473999023438,-89.99258422851562,-2577.40380859375,-0.0038107966538518667,-0.6944612860679626,-0.06143131107091904,0.7168927192687988,51.33952331542969,30.069080352783203,-2597.37890625,-0.617502748966217,-0.10893628001213074,-0.7612450122833252,0.16531555354595184
2024/02/23/10:44:55.739215,2262,1708685095,738440270,,3.0928008556365967,-3.1022820472717285,-1.1176965236663818,19.700481414794922,42.00999450683594,-55.17915344238281,135.77017211914062,-89.98515319824219,-2577.448974609375,-0.0038130797911435366,-0.6944745182991028,-0.06135439872741699,0.7168865203857422,51.34381103515625,30.10606575012207,-2597.44677734375,-0.6172487735748291,-0.10891295969486237,-0.7614540457725525,0.16531682014465332
2024/02/23/10:44:55.789166,2263,1708685095,788427914,,3.066744565963745,-3.0785365104675293,-1.068529486656189,17.18491554260254,43.883995056152344,-56.65305709838867,135.77101135253906,-90.00069427490234,-2577.470703125,-0.003636198816820979,-0.6946077942848206,-0.06152518466114998,0.7167436480522156,51.33141326904297,30.223949432373047,-2597.61328125,-0.6174717545509338,-0.10844068229198456,-0.7613300085067749,0.16536597907543182
2024/02/23/10:44:55.839016,2264,1708685095,838386190,,3.116914749145508,-3.020704984664917,-1.0968989133834839,18.61075210571289,43.118228912353516,-56.766265869140625,135.78305053710938,-89.99961853027344,-2577.53515625,-0.0043627480044960976,-0.6943345665931702,-0.060893457382917404,0.7170581817626953,51.42164993286133,30.130084991455078,-2597.931396484375,-0.6161857843399048,-0.10818342119455338,-0.762165904045105,0.16647706925868988
2024/02/23/10:44:55.889485,2265,1708685095,888767414,,3.1669559478759766,-3.0636699199676514,-1.024044394493103,18.049320220947266,43.655818939208984,-56.531715393066406,135.78097534179688,-89.99528503417969,-2577.526123046875,-0.003575755748897791,-0.6942517757415771,-0.06167709454894066,0.7170757055282593,51.48795700073242,30.05029296875,-2598.126708984375,-0.6157294511795044,-0.10861758887767792,-0.7624143958091736,0.16674456000328064
2024/02/23/10:44:55.939023,2266,1708685095,938366575,,3.123286485671997,-3.041518449783325,-1.034197449684143,16.853290557861328,44.365840911865234,-56.68915939331055,135.78787231445312,-89.99305725097656,-2577.591796875,-0.003797675482928753,-0.6943433284759521,-0.06142614781856537,0.7170075178146362,51.405025482177734,30.216724395751953,-2597.968505859375,-0.6162366271018982,-0.10784527659416199,-0.7621835470199585,0.16642720997333527
