time,.header.seq,.header.stamp.secs,.header.stamp.nsecs,.header.frame_id,.fX.data,.fY.data,.fZ.data,.mX.data,.mY.data,.mZ.data,.polaris.position.x,.polaris.position.y,.polaris.position.z,.polaris.orientation.x,.polaris.orientation.y,.polaris.orientation.z,.polaris.orientation.w,.polaristool2.position.x,.polaristool2.position.y,.polaristool2.position.z,.polaristool2.orientation.x,.polaristool2.orientation.y,.polaristool2.orientation.z,.polaristool2.orientation.w
2024/02/23/10:47:14.914810,4062,1708685234,913769305,,2.5673141479492188,-1.1874500513076782,-1.1199458837509155,-28.51222801208496,71.92111206054688,-30.39813995361328,127.82366943359375,-188.0404510498047,-2466.928466796875,-0.012741846032440662,-0.6946054697036743,-0.054462697356939316,0.7172131538391113,36.038230895996094,-21.35042953491211,-2486.577392578125,0.6516844034194946,0.06390481442213058,0.7557608485221863,0.007009229622781277
2024/02/23/10:47:14.963474,4063,1708685234,962839414,,2.5508406162261963,-1.1384358406066895,-1.1851279735565186,-26.568212509155273,71.1111068725586,-31.409215927124023,127.83330535888672,-188.0375518798828,-2466.8876953125,-0.012656007893383503,-0.694955050945282,-0.05445237457752228,0.7168766856193542,36.050357818603516,-21.567481994628906,-2486.662353515625,0.6500886082649231,0.06534519046545029,0.7570104002952576,0.007078549824655056
2024/02/23/10:47:15.013572,4064,1708685235,12948935,,2.5752320289611816,-1.1485936641693115,-1.2124170064926147,-22.774168014526367,68.2419662475586,-32.41469955444336,127.8284912109375,-188.03680419921875,-2466.918701171875,-0.012587111443281174,-0.6948926448822021,-0.05453543737530708,0.7169321179389954,36.07758712768555,-21.901819229125977,-2486.62841796875,0.6501824855804443,0.06526928395032883,0.7569540143013,0.004829241428524256
2024/02/23/10:47:15.063464,4065,1708685235,62862926,,2.6101207733154297,-1.1663655042648315,-1.264176607131958,-18.811635971069336,64.75617980957031,-33.343833923339844,127.83061218261719,-188.03501892089844,-2466.83056640625,-0.013406150974333286,-0.6950022578239441,-0.05367114022374153,0.7168762683868408,36.122764587402344,-22.228960037231445,-2486.662353515625,0.6493903398513794,0.06602358818054199,0.7575746774673462,0.003704941365867853
2024/02/23/10:47:15.113798,4066,1708685235,113156745,,2.6248161792755127,-1.2240012884140015,-1.2812682390213013,-16.255985260009766,62.051849365234375,-34.518550872802734,127.83831787109375,-188.05174255371094,-2466.9970703125,-0.012576769106090069,-0.6944533586502075,-0.054646220058202744,0.7173494100570679,36.237422943115234,-22.97317886352539,-2486.73388671875,0.649251401424408,0.06859209388494492,0.7574711441993713,0.0022705465089529753
2024/02/23/10:47:15.163478,4067,1708685235,162833347,,2.668217897415161,-1.320460319519043,-1.1998106241226196,-15.587947845458984,62.47835159301758,-35.944496154785156,127.84306335449219,-188.04966735839844,-2467.087158203125,-0.012411224655807018,-0.694320023059845,-0.05485805869102478,0.7174651622772217,36.35519790649414,-23.069255828857422,-2486.79931640625,0.6495655179023743,0.06903418898582458,0.7571641206741333,0.0012076525017619133
2024/02/23/10:47:15.213588,4068,1708685235,212933796,,2.634223222732544,-1.3939968347549438,-1.0141124725341797,-23.996028900146484,68.5868148803711,-38.920799255371094,127.88774108886719,-188.00155639648438,-2467.145263671875,-0.012131335213780403,-0.694549560546875,-0.05506822466850281,0.7172316312789917,36.5079231262207,-23.1098575592041,-2486.650146484375,0.6500903367996216,0.0700855702161789,0.7566177248954773,0.00041138235246762633
2024/02/23/10:47:15.263582,4069,1708685235,262954678,,2.593156099319458,-1.3744287490844727,-0.9797025322914124,-28.927255630493164,72.16374969482422,-43.36283493041992,127.96773529052734,-187.92994689941406,-2467.283447265625,-0.012790181674063206,-0.6945369839668274,-0.05442578345537186,0.7172814011573792,36.639747619628906,-23.449731826782227,-2486.338623046875,-0.6503754258155823,-0.07152682542800903,-0.7562372088432312,0.0009995449800044298
2024/02/23/10:47:15.313560,4070,1708685235,312952101,,2.5906498432159424,-1.368748426437378,-0.9964931607246399,-27.79422378540039,70.79902648925781,-47.44193649291992,128.10928344726562,-187.81942749023438,-2467.560302734375,-0.012730889953672886,-0.6947428584098816,-0.05458420515060425,0.7170710563659668,36.9432487487793,-24.582019805908203,-2485.7509765625,-0.6525769829750061,-0.07334676384925842,-0.7541522979736328,0.0042319768108427525
2024/02/23/10:47:15.363485,4071,1708685235,362825250,,2.6010050773620605,-1.4672309160232544,-0.8340104222297668,-29.229089736938477,75.86170196533203,-47.943660736083984,128.27166748046875,-187.6686248779297,-2467.84130859375,-0.01248722244054079,-0.6948832869529724,-0.05489303544163704,0.7169156670570374,37.32231140136719,-25.099193572998047,-2485.3076171875,-0.6538008451461792,-0.07373452931642532,-0.7530415058135986,0.006009598262608051
2024/02/23/10:47:15.414783,4072,1708685235,413984428,,2.5309956073760986,-1.466761589050293,-0.8229334354400635,-33.24106979370117,79.99019622802734,-48.33287811279297,128.459228515625,-187.51792907714844,-2468.142333984375,-0.012297709472477436,-0.6949708461761475,-0.05511001497507095,0.7168174386024475,37.6600227355957,-26.09379005432129,-2484.6845703125,-0.6541416049003601,-0.0746445506811142,-0.7526106834411621,0.010202928446233273
2024/02/23/10:47:15.463343,4073,1708685235,462917893,,2.5615406036376953,-1.4830259084701538,-0.8206385374069214,-28.946048736572266,78.83194732666016,-49.455787658691406,128.6475830078125,-187.35244750976562,-2468.529296875,-0.013083703815937042,-0.6948870420455933,-0.05437039956450462,0.716941237449646,37.98931884765625,-27.818323135375977,-2484.276123046875,-0.6545450091362,-0.0744948536157608,-0.752112090587616,0.018674854189157486
2024/02/23/10:47:15.513671,4074,1708685235,512881380,,2.5569233894348145,-1.511961579322815,-0.8082870244979858,-24.19626808166504,81.56703186035156,-50.54944610595703,128.7784423828125,-187.2163543701172,-2468.759521484375,-0.012878475710749626,-0.695003092288971,-0.05467427521944046,0.7168092727661133,38.0975456237793,-29.156221389770508,-2484.103759765625,-0.6549622416496277,-0.07305224984884262,-0.7516950368881226,0.025346674025058746
2024/02/23/10:47:15.563424,4075,1708685235,562803224,,2.5964176654815674,-1.576728343963623,-0.7802861928939819,-19.12843132019043,79.48818969726562,-48.14128494262695,128.80816650390625,-187.20716857910156,-2468.84130859375,-0.012921711429953575,-0.694912850856781,-0.054670996963977814,0.7168962359428406,38.190364837646484,-29.884214401245117,-2484.380859375,-0.653694748878479,-0.07354967296123505,-0.7526487708091736,0.02816760540008545
2024/02/23/10:47:15.613832,4076,1708685235,613064350,,2.5951385498046875,-1.5792661905288696,-0.7571644186973572,-17.0111083984375,82.24943542480469,-50.628440856933594,128.7423095703125,-187.28074645996094,-2468.683837890625,-0.012408771552145481,-0.6950955390930176,-0.05515489727258682,0.7166910767555237,38.01762008666992,-31.224552154541016,-2484.833740234375,-0.6529147624969482,-0.07449254393577576,-0.7530708312988281,0.032210271805524826
2024/02/23/10:47:15.663323,4077,1708685235,662843942,,2.6034088134765625,-1.5939699411392212,-0.6288822889328003,-17.414230346679688,83.47645568847656,-51.4049186706543,128.63308715820312,-187.36260986328125,-2468.3486328125,-0.012221907265484333,-0.6954977512359619,-0.055145181715488434,0.7163047194480896,37.45215606689453,-31.934066772460938,-2485.367919921875,-0.6506949067115784,-0.07436638325452805,-0.7548837661743164,0.034875378012657166
2024/02/23/10:47:15.713738,4078,1708685235,713057158,,2.603425979614258,-1.5605549812316895,-0.6913439035415649,-15.836618423461914,82.58954620361328,-48.75349426269531,128.54083251953125,-187.47288513183594,-2468.388671875,-0.012513921596109867,-0.6948847770690918,-0.05488203838467598,0.7169145941734314,37.244712829589844,-32.7206916809082,-2486.09814453125,-0.6489991545677185,-0.07455085217952728,-0.7561607956886292,0.03825046122074127
2024/02/23/10:47:15.763924,4079,1708685235,763114153,,2.634420394897461,-1.6049073934555054,-0.6563366651535034,-14.2015962600708,84.18128967285156,-50.59657287597656,128.49530029296875,-187.48428344726562,-2468.231689453125,-0.012800706550478935,-0.6951820850372314,-0.05449434369802475,0.7166508436203003,37.18932342529297,-34.14478302001953,-2486.43310546875,-0.6481672525405884,-0.07437693327665329,-0.7565150260925293,0.04508107155561447
2024/02/23/10:47:15.813572,4080,1708685235,812984357,,2.6384787559509277,-1.6403114795684814,-0.6260663270950317,-16.53569221496582,87.62681579589844,-50.615257263183594,128.48971557617188,-187.51077270507812,-2468.284423828125,-0.012307443656027317,-0.694821834564209,-0.05504743009805679,0.7169665098190308,37.45033645629883,-34.724327087402344,-2486.624267578125,-0.6474283337593079,-0.07523421943187714,-0.7569882869720459,0.04631525278091431
2024/02/23/10:47:15.863501,4081,1708685235,862807894,,2.648902177810669,-1.627541422843933,-0.6779825687408447,-16.787355422973633,89.8514633178711,-51.42857360839844,128.51260375976562,-187.48487854003906,-2468.223388671875,-0.012966881506145,-0.6951825022697449,-0.05437269061803818,0.7166566252708435,37.64971160888672,-35.49948501586914,-2486.57861328125,-0.6470994353294373,-0.07610457390546799,-0.7570366859436035,0.048640865832567215
2024/02/23/10:47:15.914238,4082,1708685235,913500119,,2.652340888977051,-1.6575686931610107,-0.6241297721862793,-19.138269424438477,90.97826385498047,-51.487308502197266,128.5521240234375,-187.448974609375,-2468.370849609375,-0.0129545908421278,-0.6949687004089355,-0.05444689095020294,0.7168585658073425,37.91643142700195,-35.61044692993164,-2486.42431640625,-0.6465615034103394,-0.075510174036026,-0.7574684023857117,0.049979664385318756
2024/02/23/10:47:15.963457,4083,1708685235,962994874,,2.6187877655029297,-1.5851205587387085,-0.7848415970802307,-19.076351165771484,88.49259948730469,-50.94526290893555,128.5944061279297,-187.42579650878906,-2468.450927734375,-0.012381196022033691,-0.6949377059936523,-0.055051784962415695,0.7168525457382202,38.07612991333008,-35.94790267944336,-2486.15283203125,-0.6462878584861755,-0.07630829513072968,-0.7575803995132446,0.05060596391558647
2024/02/23/10:47:16.013523,4084,1708685236,12886768,,2.6933505535125732,-1.5764858722686768,-0.9251871109008789,-8.452386856079102,80.09405517578125,-50.47053527832031,128.64100646972656,-187.37240600585938,-2468.42529296875,-0.013120735064148903,-0.6952093839645386,-0.05420948937535286,0.7166401743888855,38.18050765991211,-36.8641471862793,-2486.214599609375,-0.6462287306785583,-0.0764751210808754,-0.7573712468147278,0.054118331521749496
2024/02/23/10:47:16.063707,4085,1708685236,62923493,,2.7542831897735596,-1.6862539052963257,-0.8190494775772095,-5.200836658477783,79.16029357910156,-49.548343658447266,128.65476989746094,-187.35617065429688,-2468.53857421875,-0.01289689913392067,-0.694930911064148,-0.05459003522992134,0.7168853878974915,38.284568786621094,-37.27879333496094,-2486.49609375,-0.6458098292350769,-0.07725762575864792,-0.757577657699585,0.055109430104494095
2024/02/23/10:47:16.113599,4086,1708685236,112936411,,2.7369885444641113,-1.7141669988632202,-0.7699207067489624,-8.894156455993652,84.68622589111328,-49.27334976196289,128.66920471191406,-187.36724853515625,-2468.488525390625,-0.013056386262178421,-0.695221483707428,-0.054390206933021545,0.7166158556938171,38.32939147949219,-37.953041076660156,-2486.886962890625,-0.6453264951705933,-0.07641369849443436,-0.757819414138794,0.05851809307932854
2024/02/23/10:47:16.163589,4087,1708685236,162803979,,2.7683959007263184,-1.7549635171890259,-0.6226615905761719,-11.858638763427734,90.4887924194336,-49.09197998046875,128.66366577148438,-187.36085510253906,-2468.551513671875,-0.013016910292208195,-0.69502192735672,-0.05440283566713333,0.7168091535568237,38.07484817504883,-38.11878967285156,-2487.3818359375,-0.645213782787323,-0.07667379826307297,-0.7579160928726196,0.05816793441772461
2024/02/23/10:47:16.213749,4088,1708685236,213049666,,2.696465492248535,-1.7115528583526611,-0.6027780771255493,-19.05340576171875,98.09391784667969,-47.78636169433594,128.64517211914062,-187.36669921875,-2468.506591796875,-0.012364247813820839,-0.6949908137321472,-0.05507538840174675,0.7167995572090149,37.75088882446289,-38.73582458496094,-2488.232666015625,-0.6419565677642822,-0.07476084679365158,-0.7605164051055908,0.06258966773748398
2024/02/23/10:47:16.263476,4089,1708685236,262846202,,2.674670934677124,-1.6058971881866455,-0.650232195854187,-21.027462005615234,101.2054214477539,-45.64796829223633,128.63841247558594,-187.38645935058594,-2468.59130859375,-0.012175784446299076,-0.6949101090431213,-0.05528898164629936,0.7168645858764648,37.24325942993164,-39.338287353515625,-2489.12548828125,-0.6383935213088989,-0.07130435109138489,-0.7633740901947021,0.06803972274065018
2024/02/23/10:47:16.313782,4090,1708685236,312956420,,2.673858165740967,-1.609809160232544,-0.6005325317382812,-21.40312957763672,102.24090576171875,-41.800601959228516,128.63540649414062,-187.3773651123047,-2468.567626953125,-0.012492361478507519,-0.6948898434638977,-0.05497473478317261,0.7169029712677002,36.853458404541016,-40.22734832763672,-2490.43896484375,-0.6343705654144287,-0.06933272629976273,-0.7663378119468689,0.07411663979291916
2024/02/23/10:47:16.363352,4091,1708685236,362778859,,2.6583752632141113,-1.5754141807556152,-0.4682045578956604,-29.07291030883789,107.44439697265625,-42.43534469604492,128.64549255371094,-187.3975372314453,-2468.6181640625,-0.012530307285487652,-0.6946254372596741,-0.05494782328605652,0.7171605825424194,36.912864685058594,-40.99028396606445,-2491.6982421875,-0.6326815485954285,-0.06902956962585449,-0.767347514629364,0.07827334851026535
2024/02/23/10:47:16.413646,4092,1708685236,412894130,,2.592031478881836,-1.5123536586761475,-0.33873605728149414,-38.67281723022461,116.53108215332031,-46.591026306152344,128.64627075195312,-187.39430236816406,-2468.67822265625,-0.012769438326358795,-0.6946247220039368,-0.05477060377597809,0.7171705365180969,36.98033142089844,-40.77499771118164,-2492.782958984375,-0.6301704049110413,-0.06749606877565384,-0.7695160508155823,0.07857860624790192
2024/02/23/10:47:16.463561,4093,1708685236,462902546,,2.523815870285034,-1.367404580116272,-0.46689796447753906,-38.494483947753906,120.53396606445312,-49.15713882446289,128.65933227539062,-187.34645080566406,-2468.411376953125,-0.012179074808955193,-0.6954044103622437,-0.055176056921482086,0.716393768787384,37.1473388671875,-41.2072639465332,-2493.546875,-0.6288642287254333,-0.06864158064126968,-0.7703076601028442,0.08027589321136475
2024/02/23/10:47:16.514048,4094,1708685236,513278174,,2.606971263885498,-1.383365273475647,-0.5338724851608276,-34.76116943359375,116.09751892089844,-48.79654312133789,128.67005920410156,-187.36557006835938,-2468.523193359375,-0.01262649241834879,-0.695264458656311,-0.054772187024354935,0.7165527939796448,37.23772048950195,-41.48728561401367,-2494.091064453125,-0.6255273818969727,-0.06762613356113434,-0.7728762626647949,0.08248914033174515
2024/02/23/10:47:16.563784,4095,1708685236,563047960,,2.6423161029815674,-1.416118860244751,-0.5866203904151917,-31.404769897460938,109.53416442871094,-45.75532150268555,128.65696716308594,-187.36029052734375,-2468.593505859375,-0.01237715408205986,-0.6949137449264526,-0.05501963943243027,0.716878354549408,37.16834259033203,-41.34125518798828,-2493.992919921875,-0.6256043314933777,-0.06730532646179199,-0.7728979587554932,0.08196332305669785
2024/02/23/10:47:16.613813,4096,1708685236,613163093,,2.663421630859375,-1.4652363061904907,-0.6714521050453186,-26.809444427490234,100.75444030761719,-43.13967514038086,128.65670776367188,-187.3814239501953,-2468.643310546875,-0.012796023860573769,-0.6946162581443787,-0.054857127368450165,0.7171716690063477,37.1409797668457,-41.44465637207031,-2493.795166015625,-0.6249441504478455,-0.06723526865243912,-0.7734085917472839,0.08223957568407059
2024/02/23/10:47:16.663293,4097,1708685236,662728854,,2.6973376274108887,-1.4701926708221436,-0.6798405647277832,-23.72379493713379,96.42709350585938,-43.221858978271484,128.6466064453125,-187.3807373046875,-2468.5087890625,-0.013086799532175064,-0.6953850388526917,-0.05420861393213272,0.7164703607559204,37.20265579223633,-41.606468200683594,-2493.842529296875,-0.6250007748603821,-0.06689335405826569,-0.7732197642326355,0.08384781330823898
2024/02/23/10:47:16.713586,4098,1708685236,712912504,,2.727267265319824,-1.4965137243270874,-0.6366772651672363,-23.720108032226562,95.95291137695312,-44.369808197021484,128.65847778320312,-187.38287353515625,-2468.550048828125,-0.01336018368601799,-0.6951461434364319,-0.054071761667728424,0.7167074680328369,37.19540786743164,-41.396785736083984,-2493.96630859375,-0.6245088577270508,-0.06704851239919662,-0.7737170457839966,0.082795649766922
2024/02/23/10:47:16.763563,4099,1708685236,762828406,,2.739187002182007,-1.4994772672653198,-0.5742208957672119,-28.210712432861328,94.98230743408203,-45.275543212890625,128.655517578125,-187.37307739257812,-2468.48046875,-0.013648848049342632,-0.6954472064971924,-0.05365925654768944,0.7164409160614014,37.21520233154297,-41.31295394897461,-2494.1123046875,-0.6243588328361511,-0.06714165210723877,-0.7738699316978455,0.08242221176624298
2024/02/23/10:47:16.813219,4100,1708685236,812776917,,2.7173824310302734,-1.467219591140747,-0.523705005645752,-32.44431686401367,96.92198181152344,-46.27187728881836,128.65472412109375,-187.36917114257812,-2468.414794921875,-0.01411986630409956,-0.6953383088111877,-0.05325417220592499,0.7165676951408386,36.985538482666016,-40.317176818847656,-2493.83837890625,-0.6267524361610413,-0.06586567312479019,-0.7725565433502197,0.07745668292045593
2024/02/23/10:47:16.863655,4101,1708685236,862867362,,2.69334077835083,-1.4716678857803345,-0.304421067237854,-45.05893325805664,101.5007095336914,-44.431861877441406,128.66244506835938,-187.3311767578125,-2468.428955078125,-0.012534692883491516,-0.6955071091651917,-0.054811760783195496,0.7163159251213074,36.631446838378906,-38.534912109375,-2493.593017578125,-0.6291807293891907,-0.0641888901591301,-0.7716343402862549,0.06776335835456848
2024/02/23/10:47:16.913758,4102,1708685236,912934877,,2.6277577877044678,-1.468161940574646,-0.04670453071594238,-72.33122253417969,116.35514831542969,-36.10486602783203,128.66595458984375,-187.34521484375,-2468.490966796875,-0.012770920060575008,-0.6953494548797607,-0.05472305417060852,0.7164714932441711,36.11286163330078,-36.462772369384766,-2492.599365234375,-0.6334664225578308,-0.06323076784610748,-0.7691229581832886,0.05632098391652107
2024/02/23/10:47:16.963418,4103,1708685236,962853510,,2.3943467140197754,-1.247408151626587,-0.4668283462524414,-90.41796875,125.09725952148438,-25.422271728515625,128.67520141601562,-187.3435516357422,-2468.525146484375,-0.012934373691678047,-0.6952346563339233,-0.054583776742219925,0.7165905833244324,35.738365173339844,-35.417720794677734,-2491.05908203125,-0.6375144720077515,-0.0628122091293335,-0.7663070559501648,0.04902428761124611
2024/02/23/10:47:17.013948,4104,1708685237,13322282,,2.29817795753479,-1.3192085027694702,-0.5617012977600098,-99.29973602294922,126.4648208618164,-12.076337814331055,128.68429565429688,-187.33981323242188,-2468.515625,-0.01240063738077879,-0.6951496601104736,-0.05511218309402466,0.7166420221328735,35.39567947387695,-34.62003707885742,-2489.289794921875,-0.6417442560195923,-0.061539407819509506,-0.7630826234817505,0.045630671083927155
2024/02/23/10:47:17.063319,4105,1708685237,62688259,,2.233370304107666,-1.2284821271896362,-0.8713288307189941,-97.26093292236328,120.83734130859375,-3.7158164978027344,128.6702423095703,-187.3529815673828,-2468.534423828125,-0.011923740617930889,-0.6951999664306641,-0.05555213615298271,0.7165673971176147,35.2922248840332,-35.22975158691406,-2487.6357421875,-0.6459517478942871,-0.06051795184612274,-0.7593953609466553,0.04901610314846039
2024/02/23/10:47:17.113133,4106,1708685237,112392971,,2.2775888442993164,-1.3994704484939575,-0.8114458322525024,-89.64710235595703,118.1156234741211,-0.07873249053955078,128.67005920410156,-187.3464813232422,-2468.473876953125,-0.012340225279331207,-0.6952341198921204,-0.05517178028821945,0.7165565490722656,35.112064361572266,-34.642295837402344,-2486.446533203125,-0.6489872336387634,-0.05966164544224739,-0.7570854425430298,0.04558207094669342
2024/02/23/10:47:17.163584,4107,1708685237,162913897,,2.1634554862976074,-1.4937721490859985,-0.6849627494812012,-98.61498260498047,126.94029235839844,2.271670341491699,128.66664123535156,-187.34425354003906,-2468.403076171875,-0.013242584653198719,-0.6953313946723938,-0.05412575975060463,0.7165258526802063,35.04230499267578,-34.99269485473633,-2485.516357421875,-0.651443600654602,-0.05803641304373741,-0.7549015283584595,0.04875157028436661
2024/02/23/10:47:17.213661,4108,1708685237,212960413,,2.049205780029297,-1.4095555543899536,-0.8114495277404785,-96.7517318725586,129.8727264404297,1.453902244567871,128.66836547851562,-187.36068725585938,-2468.476806640625,-0.011144289746880531,-0.6949670314788818,-0.056277643889188766,0.7167492508888245,35.11814498901367,-36.06742858886719,-2484.975830078125,-0.6519243121147156,-0.05656305328011513,-0.7541159391403198,0.055717628449201584
2024/02/23/10:47:17.263458,4109,1708685237,262789328,,2.0938944816589355,-1.4659309387207031,-0.7732620239257812,-88.96056365966797,128.32962036132812,-1.5430240631103516,128.66360473632812,-187.36407470703125,-2468.54931640625,-0.012059102766215801,-0.6948868036270142,-0.0554770790040493,0.7168745994567871,35.140960693359375,-36.411376953125,-2484.545166015625,-0.6527139544487,-0.05516214296221733,-0.7532734274864197,0.05916702374815941
2024/02/23/10:47:17.313503,4110,1708685237,312888585,,2.0854763984680176,-1.4783055782318115,-0.7778530120849609,-86.23698425292969,130.0620574951172,-4.127460479736328,128.66001892089844,-187.37783813476562,-2468.5400390625,-0.013038099743425846,-0.6949036121368408,-0.054444532841444016,0.7169203162193298,35.21237564086914,-37.01618957519531,-2484.2919921875,-0.652158796787262,-0.052632324397563934,-0.7534722089767456,0.06479506939649582
2024/02/23/10:47:17.363653,4111,1708685237,362949840,,2.1405768394470215,-1.5324715375900269,-0.6700563430786133,-82.50685119628906,131.17156982421875,-7.994898796081543,128.65560913085938,-187.37115478515625,-2468.3642578125,-0.012596799060702324,-0.6952491402626038,-0.0548052042722702,0.7165656089782715,35.36676025390625,-38.17970657348633,-2483.85302734375,-0.6537756323814392,-0.05005738511681557,-0.751444399356842,0.07350534200668335
2024/02/23/10:47:17.413579,4112,1708685237,412938652,,2.159198522567749,-1.536590576171875,-0.6997067928314209,-75.56011962890625,135.70993041992188,-10.777345657348633,128.6606903076172,-187.3553009033203,-2468.46630859375,-0.012957670725882053,-0.6950440406799316,-0.05440204218029976,0.7167888879776001,35.523033142089844,-40.34778594970703,-2483.783203125,-0.6524860858917236,-0.046413764357566833,-0.7511314749717712,0.08893359452486038
2024/02/23/10:47:17.463399,4113,1708685237,462735159,,2.2657105922698975,-1.5411535501480103,-0.784236490726471,-58.17141342163086,135.3095245361328,-13.87481689453125,128.6453094482422,-187.38470458984375,-2468.5419921875,-0.012524649500846863,-0.6947377920150757,-0.054991018027067184,0.7170484662055969,34.97150421142578,-41.36042022705078,-2483.353515625,-0.654107928276062,-0.044660959392786026,-0.7491105794906616,0.0947709009051323
2024/02/23/10:47:17.513722,4114,1708685237,513021036,,2.382066488265991,-1.6915483474731445,-0.6356862783432007,-49.66094207763672,134.35028076171875,-13.751058578491211,128.66079711914062,-187.37930297851562,-2468.499755859375,-0.01198018342256546,-0.6950165033340454,-0.055472757667303085,0.7167505025863647,34.713623046875,-40.357696533203125,-2482.615966796875,-0.6566728949546814,-0.04167003929615021,-0.7474393248558044,0.09153582155704498
2024/02/23/10:47:17.563462,4115,1708685237,562798246,,2.3371920585632324,-1.6306705474853516,-0.5473936200141907,-58.017555236816406,135.8799285888672,-12.859216690063477,128.6553192138672,-187.3522491455078,-2468.50048828125,-0.012181093916296959,-0.6951866149902344,-0.05528378486633301,0.7165967226028442,34.2843132019043,-38.169921875,-2481.823486328125,-0.6596572995185852,-0.041767559945583344,-0.7462564706802368,0.07879719138145447
2024/02/23/10:47:17.613631,4116,1708685237,612855108,,2.212442398071289,-1.6036202907562256,-0.4362196922302246,-81.30708312988281,139.86795043945312,-4.984535217285156,128.65969848632812,-187.35556030273438,-2468.5224609375,-0.012219115160405636,-0.6950158476829529,-0.055351391434669495,0.7167565226554871,34.17927551269531,-37.727569580078125,-2481.456787109375,-0.6597833633422852,-0.04307039827108383,-0.746536135673523,0.07426001876592636
2024/02/23/10:47:17.663437,4117,1708685237,662662351,,2.163577079772949,-1.517024278640747,-0.5853856801986694,-92.58761596679688,139.779296875,6.082503318786621,128.6723175048828,-187.34649658203125,-2468.431884765625,-0.012799972668290138,-0.6952793598175049,-0.05469357222318649,0.7165412902832031,33.967411041259766,-36.77513885498047,-2480.90380859375,-0.6616953611373901,-0.043960072100162506,-0.7454218864440918,0.06762397289276123
2024/02/23/10:47:17.713501,4118,1708685237,712805179,,2.0809073448181152,-1.496258020401001,-0.6740634441375732,-99.96497344970703,138.82302856445312,10.996793746948242,128.6754150390625,-187.3538360595703,-2468.4755859375,-0.013064692728221416,-0.695387065410614,-0.05447562411427498,0.7164485454559326,33.81409454345703,-35.9836311340332,-2480.037109375,-0.6636065244674683,-0.04438237100839615,-0.7441004514694214,0.06301680207252502
2024/02/23/10:47:17.763290,4119,1708685237,762680718,,1.9892860651016235,-1.407973051071167,-0.8045282363891602,-101.22254943847656,136.36346435546875,12.659412384033203,128.6796417236328,-187.3433380126953,-2468.48193359375,-0.01182570494711399,-0.6953198909759521,-0.055619657039642334,0.7164474129676819,33.68771743774414,-35.624874114990234,-2479.35595703125,-0.6650044918060303,-0.04610500484704971,-0.7430811524391174,0.05893881246447563
2024/02/23/10:47:17.813320,4120,1708685237,812640924,,1.9789578914642334,-1.426667332649231,-0.8549211025238037,-101.74837493896484,132.49505615234375,14.48703670501709,128.67599487304688,-187.34640502929688,-2468.50146484375,-0.013517026789486408,-0.6948032379150391,-0.05396047607064247,0.7170453071594238,33.72862243652344,-36.14252853393555,-2478.935791015625,-0.6662171483039856,-0.046990469098091125,-0.7418172359466553,0.060446757823228836
2024/02/23/10:47:17.863156,4121,1708685237,862580362,,1.9886970520019531,-1.4660625457763672,-0.8049085140228271,-103.19435119628906,133.32022094726562,15.150851249694824,128.66976928710938,-187.34786987304688,-2468.442138671875,-0.01274530217051506,-0.6953140497207642,-0.05479041486978531,0.7165011763572693,33.70698547363281,-35.91032791137695,-2478.549560546875,-0.6672967672348022,-0.048560552299022675,-0.740960955619812,0.057738423347473145
2024/02/23/10:47:17.913550,4122,1708685237,912817782,,1.9651278257369995,-1.4523869752883911,-0.8300366401672363,-106.02864837646484,134.5802764892578,16.27210235595703,128.67379760742188,-187.35630798339844,-2468.489501953125,-0.012548364698886871,-0.6949864625930786,-0.05498463287949562,0.71680748462677,33.63608932495117,-35.68506622314453,-2477.78857421875,-0.6690707802772522,-0.04789222404360771,-0.739480197429657,0.0567421019077301
2024/02/23/10:47:17.963558,4123,1708685237,962797819,,1.9424089193344116,-1.4974427223205566,-0.8038511276245117,-105.93712615966797,134.07798767089844,17.014400482177734,128.68040466308594,-187.35028076171875,-2468.388916015625,-0.01280981581658125,-0.6955899000167847,-0.05456065386533737,0.7162497639656067,33.637596130371094,-35.90817642211914,-2476.868408203125,-0.6710043549537659,-0.04620744287967682,-0.7375896573066711,0.059829507023096085
2024/02/23/10:47:18.013703,4124,1708685238,12783637,,1.8930888175964355,-1.4684340953826904,-0.8724093437194824,-104.63583374023438,134.8170166015625,15.153159141540527,128.6771240234375,-187.36297607421875,-2468.4697265625,-0.01218195166438818,-0.6952368021011353,-0.05524750426411629,0.7165508270263672,33.73737716674805,-36.61471939086914,-2476.2646484375,-0.6718451380729675,-0.04505413398146629,-0.7364429235458374,0.06516195833683014
2024/02/23/10:47:18.063383,4125,1708685238,62721963,,1.9295196533203125,-1.4557149410247803,-0.8443934917449951,-97.03515625,136.5252227783203,7.699411392211914,128.6728515625,-187.3575439453125,-2468.46923828125,-0.012006852775812149,-0.6949781775474548,-0.05550529807806015,0.7167847156524658,33.812957763671875,-37.15398025512695,-2475.9609375,-0.6727475523948669,-0.04437002167105675,-0.7353435158729553,0.06864418834447861
2024/02/23/10:47:18.113544,4126,1708685238,112738642,,1.9633417129516602,-1.442686915397644,-0.7948455810546875,-91.73724365234375,140.03189086914062,2.080925941467285,128.68453979492188,-187.3425750732422,-2468.347412109375,-0.011998309753835201,-0.695554792881012,-0.05538467690348625,0.7162346839904785,33.86988830566406,-37.50498580932617,-2476.015869140625,-0.6728457808494568,-0.04307478666305542,-0.7350623607635498,0.07145901769399643
2024/02/23/10:47:18.163574,4127,1708685238,162899245,,1.971914529800415,-1.4751843214035034,-0.6997051239013672,-89.74859619140625,144.60198974609375,-0.7141008377075195,128.6758575439453,-187.36160278320312,-2468.544677734375,-0.012212519533932209,-0.6950275897979736,-0.05521556735038757,0.716755747795105,33.96342849731445,-37.890838623046875,-2476.426513671875,-0.6722412705421448,-0.04221971333026886,-0.735379695892334,0.0743362233042717
2024/02/23/10:47:18.213296,4128,1708685238,212563405,,1.9494094848632812,-1.4911283254623413,-0.635462760925293,-92.41757202148438,151.55776977539062,-1.958486557006836,128.68179321289062,-187.36187744140625,-2468.457763671875,-0.012762446887791157,-0.6949811577796936,-0.054647158831357956,0.7168346643447876,34.23487854003906,-39.40484619140625,-2477.15283203125,-0.6705062389373779,-0.04224208742380142,-0.7361165881156921,0.08227621763944626
2024/02/23/10:47:18.263462,4129,1708685238,262731283,,1.9871666431427002,-1.457872986793518,-0.6986417770385742,-84.35218811035156,155.71534729003906,-8.071357727050781,128.6811065673828,-187.3649139404297,-2468.452880859375,-0.012834922410547733,-0.6949923634529114,-0.05454929172992706,0.7168300151824951,34.5179328918457,-41.113895416259766,-2477.557861328125,-0.6689555644989014,-0.04307027906179428,-0.7364929914474487,0.09067212045192719
2024/02/23/10:47:18.313562,4130,1708685238,312778257,,2.0705599784851074,-1.3906996250152588,-0.8607991933822632,-67.69886779785156,153.7962646484375,-12.711816787719727,128.67095947265625,-187.3608856201172,-2468.51904296875,-0.012103413231670856,-0.6949163675308228,-0.05531545355916023,0.7168576717376709,34.48210906982422,-40.93077850341797,-2477.373291015625,-0.6692734360694885,-0.04037567973136902,-0.7361189126968384,0.09258351475000381
2024/02/23/10:47:18.363562,4131,1708685238,363024549,,2.1892387866973877,-1.4885303974151611,-0.7767478227615356,-62.0064811706543,150.97781372070312,-15.827557563781738,128.6765899658203,-187.3679656982422,-2468.460693359375,-0.01222249772399664,-0.6951674818992615,-0.05514632910490036,0.7166252136230469,34.526206970214844,-41.35670471191406,-2477.18212890625,-0.6694576144218445,-0.040736567229032516,-0.7357442378997803,0.09406053274869919
2024/02/23/10:47:18.413363,4132,1708685238,412561845,,2.189256191253662,-1.4914181232452393,-0.8253244757652283,-58.04880142211914,148.94937133789062,-13.244418144226074,128.6786346435547,-187.36639404296875,-2468.41259765625,-0.012897171080112457,-0.6951764822006226,-0.05446942523121834,0.7166563868522644,34.46162033081055,-41.090476989746094,-2477.0400390625,-0.6696244478225708,-0.04091079533100128,-0.7357828617095947,0.09248223900794983
2024/02/23/10:47:18.463351,4133,1708685238,462612610,,2.1760671138763428,-1.591097354888916,-0.7500022649765015,-60.639041900634766,147.59725952148438,-11.751304626464844,128.6638946533203,-187.36468505859375,-2468.413330078125,-0.012293383479118347,-0.6951383948326111,-0.055167436599731445,0.7166505455970764,34.50312423706055,-41.2852897644043,-2477.198974609375,-0.6689093708992004,-0.041237249970436096,-0.7363170981407166,0.09325665980577469
2024/02/23/10:47:18.513777,4134,1708685238,512987194,,2.152733325958252,-1.5650506019592285,-0.8330650925636292,-59.090694427490234,145.88250732421875,-11.222570419311523,128.66650390625,-187.362060546875,-2468.43701171875,-0.012095512822270393,-0.6949590444564819,-0.055295851081609726,0.7168179750442505,34.50095748901367,-41.28910827636719,-2477.424560546875,-0.6686599850654602,-0.04170214757323265,-0.7365544438362122,0.09296412765979767
2024/02/23/10:47:18.563477,4135,1708685238,562658655,,2.1679654121398926,-1.5688831806182861,-0.8007116317749023,-57.63130187988281,144.5127716064453,-12.987494468688965,128.6624755859375,-187.36595153808594,-2468.410400390625,-0.01198176946491003,-0.6953142285346985,-0.055310849100351334,0.7164742350578308,34.474021911621094,-41.1353874206543,-2477.56201171875,-0.667598307132721,-0.04053477942943573,-0.7374435663223267,0.09405539929866791
2024/02/23/10:47:18.613498,4136,1708685238,612713776,,2.165597915649414,-1.505828857421875,-0.9043387770652771,-51.725791931152344,139.32762145996094,-13.842889785766602,128.66578674316406,-187.37155151367188,-2468.502685546875,-0.01181277260184288,-0.6950210928916931,-0.05555441603064537,0.7167425155639648,34.439151763916016,-40.86119842529297,-2477.7333984375,-0.6678469777107239,-0.039188217371702194,-0.7372834086418152,0.09411630034446716
2024/02/23/10:47:18.662723,4137,1708685238,662218685,,2.1800968647003174,-1.585281252861023,-0.7911306023597717,-53.941951751708984,138.28158569335938,-15.084700584411621,128.66729736328125,-187.37210083007812,-2468.516357421875,-0.011288178153336048,-0.6948508620262146,-0.056148264557123184,0.7168697714805603,34.49605178833008,-41.10514450073242,-2478.207275390625,-0.6662523746490479,-0.037855297327041626,-0.7385143041610718,0.09628771990537643
2024/02/23/10:47:18.713263,4138,1708685238,712708457,,2.1372344493865967,-1.6088218688964844,-0.7280165553092957,-56.25028610229492,141.8763885498047,-15.265253067016602,128.66311645507812,-187.37388610839844,-2468.45849609375,-0.01223550084978342,-0.694931149482727,-0.05515157803893089,0.7168537378311157,34.54182052612305,-41.22267150878906,-2478.78662109375,-0.6652213931083679,-0.03841842710971832,-0.7393926382064819,0.09645254909992218
2024/02/23/10:47:18.763316,4139,1708685238,762696399,,2.1288864612579346,-1.5580655336380005,-0.7752205729484558,-53.827415466308594,143.66070556640625,-16.68853187561035,128.67083740234375,-187.3668975830078,-2468.536865234375,-0.012315062806010246,-0.6951327919960022,-0.0552261546254158,0.7166511416435242,34.61408996582031,-41.33582305908203,-2479.36181640625,-0.6646132469177246,-0.03863358870148659,-0.739806592464447,0.09738035500049591
2024/02/23/10:47:18.813521,4140,1708685238,812751055,,2.1713647842407227,-1.5583966970443726,-0.7338744401931763,-52.742950439453125,143.67735290527344,-18.27545928955078,128.66990661621094,-187.3782958984375,-2468.53271484375,-0.012736648321151733,-0.6949114203453064,-0.054676953703165054,0.7169005274772644,34.65708541870117,-41.38360595703125,-2480.230224609375,-0.6622812747955322,-0.03893687576055527,-0.741898238658905,0.09723363071680069
2024/02/23/10:47:18.863201,4141,1708685238,862609104,,2.156189203262329,-1.5806989669799805,-0.6463314294815063,-55.85710144042969,147.3136749267578,-18.385982513427734,128.6699981689453,-187.36306762695312,-2468.562744140625,-0.012215638533234596,-0.6949544548988342,-0.05527235195040703,0.7168221473693848,34.7263298034668,-41.40684509277344,-2480.718017578125,-0.6615926623344421,-0.03990752995014191,-0.7424628734588623,0.09721840918064117
2024/02/23/10:47:18.913513,4142,1708685238,912807471,,2.1882858276367188,-1.5096486806869507,-0.805402934551239,-52.75767517089844,143.766357421875,-18.25626564025879,128.66615295410156,-187.36895751953125,-2468.5478515625,-0.013672862201929092,-0.6949540376663208,-0.05395800620317459,0.7168964147567749,34.83810806274414,-41.67172622680664,-2481.0751953125,-0.6600282192230225,-0.04145413264632225,-0.7436792850494385,0.0979052409529686
2024/02/23/10:47:18.962992,4143,1708685238,962139356,,2.286360263824463,-1.560162901878357,-0.8150701522827148,-49.24799346923828,136.47482299804688,-16.255542755126953,128.6639862060547,-187.35496520996094,-2468.453125,-0.012841597199440002,-0.695344090461731,-0.05461497604846954,0.7164837121963501,34.75259017944336,-40.80987548828125,-2481.175048828125,-0.6583752036094666,-0.04446649178862572,-0.7457557320594788,0.09172346442937851
2024/02/23/10:47:19.013224,4144,1708685239,12535604,,2.356379270553589,-1.5862572193145752,-0.8810760378837585,-50.1761360168457,126.00038146972656,-12.808036804199219,128.66546630859375,-187.34991455078125,-2468.451416015625,-0.012443358078598976,-0.6949343681335449,-0.05503591150045395,0.7168559432029724,35.39981460571289,-40.28518295288086,-2481.107177734375,-0.6583681106567383,-0.04646560922265053,-0.7460872530937195,0.08801260590553284
2024/02/23/10:47:19.062891,4145,1708685239,62304479,,2.3995890617370605,-1.6815117597579956,-0.8700949549674988,-52.889060974121094,119.42434692382812,-11.737436294555664,128.66201782226562,-187.3545379638672,-2468.489013671875,-0.011982412077486515,-0.6954376697540283,-0.05559004098176956,0.716332733631134,36.21311569213867,-38.76373291015625,-2481.277587890625,-0.6578755378723145,-0.04691672697663307,-0.7471904158592224,0.0818842425942421
2024/02/23/10:47:19.113404,4146,1708685239,112529628,,2.427621364593506,-1.5856095552444458,-0.9687270522117615,-59.09316635131836,117.41480255126953,-12.29377269744873,128.67071533203125,-187.34078979492188,-2468.505615234375,-0.012852681800723076,-0.6953554153442383,-0.054706428200006485,0.7164655327796936,37.010440826416016,-36.83855438232422,-2481.577392578125,-0.6573387384414673,-0.044944409281015396,-0.7485235333442688,0.0748213529586792
2024/02/23/10:47:19.163830,4147,1708685239,162970805,,2.495614767074585,-1.6068228483200073,-0.7495687007904053,-64.60608673095703,113.34710693359375,-15.469156265258789,128.6663818359375,-187.35183715820312,-2468.5693359375,-0.012426719069480896,-0.69502192735672,-0.0551149956882,0.7167652249336243,38.05162048339844,-35.76881790161133,-2482.465087890625,-0.6551817059516907,-0.045571424067020416,-0.7508112192153931,0.07030431181192398
2024/02/23/10:47:19.214224,4148,1708685239,213272462,,2.4835047721862793,-1.4536361694335938,-0.8744890689849854,-68.75387573242188,120.67964172363281,-19.60727310180664,128.6676025390625,-187.35171508789062,-2468.49462890625,-0.012622042559087276,-0.6953830718994141,-0.05491737276315689,0.7164266705513,38.08503341674805,-35.87408447265625,-2482.759765625,-0.6551101207733154,-0.04362471401691437,-0.7507902383804321,0.07239894568920135
2024/02/23/10:47:19.262443,4149,1708685239,261807875,,2.3093442916870117,-1.488071084022522,-0.6374320983886719,-78.707763671875,131.98837280273438,-25.008663177490234,128.66580200195312,-187.36123657226562,-2468.50634765625,-0.013317225500941277,-0.6953763365745544,-0.05413755029439926,0.7164798974990845,38.1528434753418,-37.24198913574219,-2482.7548828125,-0.6560350060462952,-0.041896551847457886,-0.7493667602539062,0.07944977283477783
2024/02/23/10:47:19.312905,4150,1708685239,312127482,,2.2028555870056152,-1.5182679891586304,-0.5256295204162598,-75.55081939697266,140.65359497070312,-28.210050582885742,128.6653289794922,-187.37429809570312,-2468.548583984375,-0.013540594838559628,-0.6951324939727783,-0.05393652617931366,0.7167274951934814,37.8887825012207,-37.4520149230957,-2482.297607421875,-0.657111644744873,-0.04057330638170242,-0.748317301273346,0.08111285418272018
2024/02/23/10:47:19.362859,4151,1708685239,362399746,,2.1276469230651855,-1.4274932146072388,-0.6946289539337158,-72.2415771484375,142.31175231933594,-28.37555694580078,128.65782165527344,-187.3790740966797,-2468.52587890625,-0.013101412914693356,-0.695073664188385,-0.05436592921614647,0.7167602777481079,37.29723358154297,-38.181053161621094,-2481.90087890625,-0.6574910879135132,-0.04059910029172897,-0.7476620078086853,0.08401552587747574
2024/02/23/10:47:19.413510,4152,1708685239,412782679,,2.160501003265381,-1.4728001356124878,-0.6960575580596924,-65.47261810302734,136.39669799804688,-26.041091918945312,128.66502380371094,-187.3656005859375,-2468.487548828125,-0.012562602758407593,-0.6948081254959106,-0.05491910129785538,0.7169851660728455,36.56197738647461,-40.303428649902344,-2481.98388671875,-0.6550853252410889,-0.043280068784952164,-0.7485518455505371,0.09305964410305023
2024/02/23/10:47:19.463413,4153,1708685239,462598260,,2.206655979156494,-1.4643696546554565,-0.7641900777816772,-56.02058410644531,131.5965576171875,-26.7846622467041,128.66769409179688,-187.3704833984375,-2468.484375,-0.012912774458527565,-0.6949192881584167,-0.0545424185693264,0.7168999910354614,35.7625846862793,-42.0333366394043,-2481.742919921875,-0.6535449028015137,-0.044350121170282364,-0.7489141821861267,0.10019835829734802
2024/02/23/10:47:19.513537,4154,1708685239,512860479,,2.320456027984619,-1.4947956800460815,-0.8784425258636475,-40.6728401184082,118.11125183105469,-26.656736373901367,128.65859985351562,-187.3749237060547,-2468.474609375,-0.013230452314019203,-0.695149838924408,-0.05418023467063904,0.7166981101036072,35.701148986816406,-41.92106628417969,-2481.569580078125,-0.653651237487793,-0.04422149807214737,-0.748906135559082,0.09961996227502823
2024/02/23/10:47:19.562813,4155,1708685239,562103594,,2.45466947555542,-1.6518539190292358,-0.8029189705848694,-39.873619079589844,113.40282440185547,-27.222209930419922,128.64486694335938,-187.39122009277344,-2468.58251953125,-0.01200352143496275,-0.6948647499084473,-0.05544758215546608,0.7168991565704346,35.70182418823242,-41.832908630371094,-2481.662109375,-0.6540993452072144,-0.044196274131536484,-0.7485624551773071,0.09927234798669815
2024/02/23/10:47:19.613104,4156,1708685239,612301641,,2.404400110244751,-1.659094214439392,-0.6828316450119019,-49.55591583251953,121.01544952392578,-26.77764129638672,128.6284637451172,-187.4010772705078,-2468.559814453125,-0.012516620568931103,-0.694750964641571,-0.054884523153305054,0.7170439958572388,35.792945861816406,-42.01105880737305,-2482.06591796875,-0.6538221836090088,-0.04442889988422394,-0.7486697435379028,0.10018129646778107
2024/02/23/10:47:19.663075,4157,1708685239,662418916,,2.3508429527282715,-1.5776911973953247,-0.7102092504501343,-54.185089111328125,126.32247924804688,-25.85104751586914,128.6143341064453,-187.41151428222656,-2468.48876953125,-0.011918402276933193,-0.6950429677963257,-0.0554761067032814,0.7167256474494934,35.79655838012695,-41.93893051147461,-2482.340087890625,-0.6523944139480591,-0.04489379748702049,-0.7499042749404907,0.10004817694425583
2024/02/23/10:47:19.713285,4158,1708685239,712676337,,2.4231796264648438,-1.5147502422332764,-0.8483296036720276,-48.94241714477539,120.23481750488281,-26.3252010345459,128.6038055419922,-187.40980529785156,-2468.47998046875,-0.012019849382340908,-0.6950388550758362,-0.055256299674510956,0.7167448997497559,35.714988708496094,-41.731903076171875,-2482.494873046875,-0.6512987613677979,-0.04406679794192314,-0.7509210705757141,0.09992747753858566
2024/02/23/10:47:19.763192,4159,1708685239,762401496,,2.4068474769592285,-1.4792612791061401,-0.9487600326538086,-45.80124282836914,114.0378646850586,-27.482383728027344,128.59976196289062,-187.42320251464844,-2468.403564453125,-0.012178415432572365,-0.6953704953193665,-0.05513444542884827,0.7164298892021179,35.601654052734375,-42.19048309326172,-2482.489990234375,-0.650907039642334,-0.04292760044336319,-0.7509447336196899,0.10275813192129135
2024/02/23/10:47:19.812479,4160,1708685239,811906475,,2.453677177429199,-1.5395684242248535,-0.8428563475608826,-42.15987014770508,113.62911224365234,-29.207183837890625,128.58193969726562,-187.4464569091797,-2468.404296875,-0.011915424838662148,-0.695070207118988,-0.05540328845381737,0.7167049050331116,35.513511657714844,-42.450538635253906,-2482.771484375,-0.6497786641120911,-0.043158844113349915,-0.7516720294952393,0.10447120666503906
2024/02/23/10:47:19.863015,4161,1708685239,862340371,,2.440699577331543,-1.539188027381897,-0.8097495436668396,-47.02570724487305,117.73694610595703,-28.72250747680664,128.567138671875,-187.45042419433594,-2468.387939453125,-0.012623889371752739,-0.6951541900634766,-0.05470089986920357,0.7166652679443359,35.53501510620117,-42.308563232421875,-2483.023681640625,-0.6492854356765747,-0.04330842196941376,-0.7521029114723206,0.10437455028295517
2024/02/23/10:47:19.912756,4162,1708685239,912168886,,2.469449281692505,-1.5423321723937988,-0.7391095161437988,-51.2604866027832,119.59442138671875,-29.078067779541016,128.57131958007812,-187.4422149658203,-2468.310791015625,-0.011529258452355862,-0.6955634355545044,-0.05588061735033989,0.7161955237388611,35.4368896484375,-41.751556396484375,-2483.126220703125,-0.6475517153739929,-0.04292713850736618,-0.7537933588027954,0.10310012102127075
2024/02/23/10:47:19.962941,4163,1708685239,962362752,,2.4953222274780273,-1.4482638835906982,-0.7866729497909546,-52.6978645324707,115.76197814941406,-29.38962173461914,128.56723022460938,-187.46810913085938,-2468.498779296875,-0.012168843299150467,-0.6950535178184509,-0.05514109507203102,0.7167370915412903,35.32375717163086,-41.29369354248047,-2482.83251953125,-0.6489031910896301,-0.04166116192936897,-0.7528736591339111,0.10183423012495041
2024/02/23/10:47:20.013700,4164,1708685240,12777903,,2.4833052158355713,-1.4550633430480957,-0.8163293600082397,-53.43794250488281,111.68453979492188,-27.854949951171875,128.5846405029297,-187.44384765625,-2468.450439453125,-0.011801051907241344,-0.6950930953025818,-0.05557528883218765,0.716671347618103,35.148895263671875,-40.895347595214844,-2482.561279296875,-0.6494361162185669,-0.04028163477778435,-0.7528591752052307,0.09906158596277237
2024/02/23/10:47:20.063571,4165,1708685240,62712924,,2.4387152194976807,-1.4779216051101685,-0.8118640184402466,-53.09501647949219,112.10589599609375,-23.64755630493164,128.59303283691406,-187.39907836914062,-2468.316162109375,-0.012004601769149303,-0.6957204341888428,-0.05549232289195061,0.7160653471946716,34.8541374206543,-39.763824462890625,-2481.7431640625,-0.6526118516921997,-0.04060288891196251,-0.7510901093482971,0.09117471426725388
2024/02/23/10:47:20.113678,4166,1708685240,113035856,,2.4010562896728516,-1.550352692604065,-0.7247201204299927,-61.81373596191406,113.1197509765625,-13.61256217956543,128.60858154296875,-187.38916015625,-2468.451416015625,-0.012085131369531155,-0.695325493812561,-0.055574681609869,0.7164410948753357,34.429412841796875,-37.58983612060547,-2480.839111328125,-0.6548769474029541,-0.04062143340706825,-0.750530481338501,0.07867704331874847
2024/02/23/10:47:20.163709,4167,1708685240,163025372,,2.305086135864258,-1.568559169769287,-0.6227095127105713,-81.51081848144531,112.0281982421875,-0.8134040832519531,128.62806701660156,-187.37078857421875,-2468.464599609375,-0.011303216218948364,-0.6956265568733215,-0.05622582137584686,0.7161107063293457,33.9310188293457,-34.89772415161133,-2479.795166015625,-0.6576703190803528,-0.04095132648944855,-0.7495442032814026,0.06305751204490662
2024/02/23/10:47:20.213373,4168,1708685240,212726504,,2.165665626525879,-1.4530971050262451,-0.7638132572174072,-98.83035278320312,108.62296295166016,12.720588684082031,128.66827392578125,-187.34071350097656,-2468.503173828125,-0.012251061387360096,-0.6953150629997253,-0.05531729757785797,0.716468334197998,33.748565673828125,-34.020145416259766,-2479.0009765625,-0.660907506942749,-0.03954903408885002,-0.7471191883087158,0.05873687192797661
2024/02/23/10:47:20.263751,4169,1708685240,262796010,,2.091055154800415,-1.3925552368164062,-0.9565922021865845,-103.59597778320312,107.27098846435547,21.771610260009766,128.68685913085938,-187.33872985839844,-2468.595703125,-0.01253526471555233,-0.6951974034309387,-0.05495389178395271,0.716605544090271,33.782676696777344,-34.47599411010742,-2478.183349609375,-0.6627964973449707,-0.03938371315598488,-0.7453034520149231,0.06060099974274635
2024/02/23/10:47:20.313532,4170,1708685240,312694650,,2.0861754417419434,-1.438876748085022,-1.0197522640228271,-100.44439697265625,108.46784973144531,24.49209213256836,128.69775390625,-187.32388305664062,-2468.561279296875,-0.012762036174535751,-0.6953741312026978,-0.05484019219875336,0.7164387702941895,33.732906341552734,-34.277183532714844,-2477.43994140625,-0.6641145348548889,-0.03923610970377922,-0.7441911101341248,0.059933386743068695
2024/02/23/10:47:20.363492,4171,1708685240,362755216,,2.0667500495910645,-1.3473615646362305,-1.1299433708190918,-98.42739868164062,107.80078125,22.950923919677734,128.69223022460938,-187.3182830810547,-2468.484130859375,-0.012512678280472755,-0.6953913569450378,-0.054999031126499176,0.7164142727851868,33.91961669921875,-34.697200775146484,-2477.092529296875,-0.6653993129730225,-0.03853742033243179,-0.742870032787323,0.062472227960824966
2024/02/23/10:47:20.413329,4172,1708685240,412580383,,2.0996851921081543,-1.3397436141967773,-1.1300055980682373,-93.06733703613281,106.7891616821289,21.342565536499023,128.68136596679688,-187.35238647460938,-2468.60205078125,-0.01263627503067255,-0.6950187683105469,-0.054977528750896454,0.7167752385139465,34.09629821777344,-34.6632080078125,-2476.808349609375,-0.6672165393829346,-0.03871742635965347,-0.7412662506103516,0.062027234584093094
2024/02/23/10:47:20.463567,4173,1708685240,462609063,,2.1110339164733887,-1.34856116771698,-1.1542888879776,-87.66658020019531,108.17308807373047,18.386425018310547,128.68380737304688,-187.35299682617188,-2468.455810546875,-0.013214296661317348,-0.6953690648078918,-0.054262012243270874,0.7164795398712158,34.235469818115234,-35.323604583740234,-2477.103759765625,-0.6663417816162109,-0.04021655023097992,-0.7418036460876465,0.06402075290679932
2024/02/23/10:47:20.512965,4174,1708685240,512307998,,2.179049015045166,-1.4134188890457153,-0.9185009002685547,-87.539794921875,111.68769836425781,15.479527473449707,128.68563842773438,-187.3535919189453,-2468.567626953125,-0.012822335585951805,-0.6951720118522644,-0.054610367864370346,0.7166513800621033,34.247745513916016,-35.29812240600586,-2477.21728515625,-0.6661398410797119,-0.040256403386592865,-0.7419458627700806,0.06444739550352097
2024/02/23/10:47:20.563668,4175,1708685240,562850905,,2.1342391967773438,-1.3610011339187622,-0.8121448755264282,-94.82494354248047,118.2545166015625,12.971772193908691,128.68760681152344,-187.33499145507812,-2468.54052734375,-0.013020496815443039,-0.6952753663063049,-0.05460743606090546,0.7165477275848389,34.28543472290039,-35.85820770263672,-2477.36962890625,-0.6652184128761292,-0.040886763483285904,-0.742452085018158,0.0676577165722847
2024/02/23/10:47:20.613156,4176,1708685240,612428158,,2.1109747886657715,-1.1946231126785278,-1.0123728513717651,-87.3465576171875,115.30558013916016,7.831774711608887,128.6836395263672,-187.32716369628906,-2468.6484375,-0.01211977656930685,-0.6947882771492004,-0.05549459159374237,0.7169677019119263,34.34928512573242,-36.35531997680664,-2477.1220703125,-0.6656649708747864,-0.039912790060043335,-0.7416870594024658,0.07209311425685883
2024/02/23/10:47:20.663273,4177,1708685240,662645022,,2.255402088165283,-1.2455649375915527,-1.1569709777832031,-71.4393310546875,104.94190216064453,2.3023972511291504,128.66458129882812,-187.35922241210938,-2468.555908203125,-0.012323630973696709,-0.6950915455818176,-0.0552271232008934,0.7166908979415894,34.43424987792969,-36.638973236083984,-2477.260986328125,-0.6648502349853516,-0.041093870997428894,-0.7422799468040466,0.07284221053123474
2024/02/23/10:47:20.713656,4178,1708685240,712820911,,2.304447889328003,-1.4108037948608398,-0.9196970462799072,-73.4158935546875,108.21631622314453,-0.5614728927612305,128.65049743652344,-187.35826110839844,-2468.414306640625,-0.01212578546255827,-0.695417582988739,-0.055406153202056885,0.7163640856742859,34.438079833984375,-36.504234313964844,-2477.32275390625,-0.6654907464981079,-0.04053720086812973,-0.7416743040084839,0.07347187399864197
2024/02/23/10:47:20.763344,4179,1708685240,762627451,,2.2537407875061035,-1.3995472192764282,-0.8267993927001953,-79.27017974853516,115.099365234375,-1.3395004272460938,128.63040161132812,-187.3740997314453,-2468.485595703125,-0.012535730376839638,-0.6951895952224731,-0.05494098737835884,0.7166141271591187,34.43122100830078,-36.33055114746094,-2477.817626953125,-0.6628516316413879,-0.039307739585638046,-0.7439450621604919,0.07502200454473495
2024/02/23/10:47:20.813430,4180,1708685240,812501299,,2.2797155380249023,-1.2100303173065186,-1.0112375020980835,-71.7354736328125,110.8873291015625,-5.004110336303711,128.6123809814453,-187.3957061767578,-2468.5244140625,-0.0118296779692173,-0.695155143737793,-0.05564671754837036,0.7166051268577576,34.531829833984375,-36.11452865600586,-2478.78271484375,-0.6607916951179504,-0.03883209824562073,-0.7457660436630249,0.07536183297634125
2024/02/23/10:47:20.863450,4181,1708685240,862598150,,2.4280405044555664,-1.2110915184020996,-0.9400485754013062,-64.125732421875,106.67256164550781,-10.254753112792969,128.62374877929688,-187.3893585205078,-2468.421875,-0.012713986448943615,-0.695536732673645,-0.054717715829610825,0.7162911295890808,34.97969436645508,-36.18797302246094,-2480.3583984375,-0.6594521403312683,-0.037425439804792404,-0.7467378377914429,0.0781329944729805
2024/02/23/10:47:20.913461,4182,1708685240,912743889,,2.467935085296631,-1.324766993522644,-0.5279812812805176,-74.39557647705078,122.45162963867188,-15.214082717895508,128.64093017578125,-187.35614013671875,-2468.41650390625,-0.012131307274103165,-0.6957764029502869,-0.05524060130119324,0.7160282731056213,35.41579818725586,-35.57854461669922,-2481.538330078125,-0.6585713624954224,-0.03732435405254364,-0.7477704286575317,0.07569726556539536
2024/02/23/10:47:20.963159,4183,1708685240,962442939,,2.3853468894958496,-1.0942206382751465,-0.9182734489440918,-75.03591918945312,131.09140014648438,-18.23197364807129,128.6615447998047,-187.36053466796875,-2468.554443359375,-0.01225119736045599,-0.6954547166824341,-0.05525205284357071,0.7163378000259399,35.72285842895508,-35.764137268066406,-2482.15283203125,-0.6588258743286133,-0.03954984247684479,-0.7475310564041138,0.07471033930778503
2024/02/23/10:47:21.013259,4184,1708685241,12566457,,2.438319206237793,-1.1587082147598267,-0.9580386877059937,-74.30307006835938,133.6110076904297,-19.059734344482422,128.67727661132812,-187.33856201171875,-2468.5693359375,-0.012668915092945099,-0.6955606341362,-0.054785728454589844,0.7162635326385498,35.85703659057617,-36.513179779052734,-2482.56494140625,-0.6574429273605347,-0.041562747210264206,-0.7484683990478516,0.07639633864164352
2024/02/23/10:47:21.062931,4185,1708685241,62244760,,2.4709112644195557,-1.1236414909362793,-1.0665173530578613,-70.85594177246094,132.93821716308594,-18.40428924560547,128.6790771484375,-187.3281707763672,-2468.595458984375,-0.01189230103045702,-0.6952857375144958,-0.05564918369054794,0.7164771556854248,35.918800354003906,-36.92627716064453,-2482.694580078125,-0.6558698415756226,-0.04224388673901558,-0.74958735704422,0.07854294031858444
2024/02/23/10:47:21.113451,4186,1708685241,112648650,,2.6014022827148438,-1.095686674118042,-1.0763978958129883,-65.6417465209961,129.0010986328125,-20.305524826049805,128.6754150390625,-187.33694458007812,-2468.55859375,-0.012204916216433048,-0.6953077912330627,-0.055274564772844315,0.716479480266571,36.01413345336914,-37.42156982421875,-2482.508544921875,-0.6561541557312012,-0.04333759844303131,-0.7491370439529419,0.07985799759626389
2024/02/23/10:47:21.163071,4187,1708685241,162466810,,2.6058616638183594,-1.1501553058624268,-0.859870433807373,-71.67486572265625,134.76690673828125,-21.977542877197266,128.67091369628906,-187.34408569335938,-2468.541748046875,-0.011492393910884857,-0.6953232884407043,-0.055884551256895065,0.7164288759231567,35.90494155883789,-37.28997039794922,-2481.717529296875,-0.6579728126525879,-0.042376961559057236,-0.7476288676261902,0.07954289019107819
2024/02/23/10:47:21.213418,4188,1708685241,212739307,,2.604674816131592,-1.1154849529266357,-1.016483187675476,-67.54827117919922,129.6804962158203,-19.997068405151367,128.67501831054688,-187.3529052734375,-2468.553466796875,-0.012336994521319866,-0.6952250003814697,-0.0551331527531147,0.7165684103965759,35.89476013183594,-37.90287780761719,-2481.183349609375,-0.6589919328689575,-0.041109468787908554,-0.7464584708213806,0.08270032703876495
2024/02/23/10:47:21.263081,4189,1708685241,262494909,,2.559070348739624,-1.1607892513275146,-0.8915444612503052,-69.75267028808594,132.93458557128906,-18.698440551757812,128.67727661132812,-187.36917114257812,-2468.6416015625,-0.013309375382959843,-0.6950429081916809,-0.05418558046221733,0.7167999148368835,35.902061462402344,-38.589664459228516,-2480.9306640625,-0.6591890454292297,-0.0430433563888073,-0.7460577487945557,0.08375507593154907
2024/02/23/10:47:21.313659,4190,1708685241,312969181,,2.5790786743164062,-1.0735701322555542,-1.1869807243347168,-59.423648834228516,126.27961730957031,-17.263559341430664,128.6721649169922,-187.36798095703125,-2468.6103515625,-0.012559921480715275,-0.6949813365936279,-0.05495866388082504,0.7168143391609192,36.07183837890625,-39.847984313964844,-2481.39501953125,-0.6577324271202087,-0.044778063893318176,-0.7467737197875977,0.08781745284795761
2024/02/23/10:47:21.363086,4191,1708685241,362427354,,2.704596519470215,-1.223459005355835,-0.9122143983840942,-57.92937469482422,126.4419174194336,-19.840194702148438,128.66627502441406,-187.3799591064453,-2468.578125,-0.011953855864703655,-0.6948100924491882,-0.05547432228922844,0.7169509530067444,36.17163848876953,-40.31633377075195,-2481.712158203125,-0.6577792167663574,-0.044527821242809296,-0.7466314435005188,0.0887988954782486
2024/02/23/10:47:21.413150,4192,1708685241,412470969,,2.5624213218688965,-1.2596911191940308,-0.7236735820770264,-70.3629150390625,140.16445922851562,-20.754852294921875,128.65577697753906,-187.3816680908203,-2468.55029296875,-0.01207659300416708,-0.6947470903396606,-0.05536765232682228,0.717018187046051,36.21818161010742,-40.894866943359375,-2481.835693359375,-0.6576279401779175,-0.04417674243450165,-0.7465205192565918,0.09099997580051422
2024/02/23/10:47:21.463013,4193,1708685241,462420998,,2.4717350006103516,-1.1208363771438599,-0.9300984144210815,-66.80711364746094,141.03128051757812,-20.04791831970215,128.65850830078125,-187.39743041992188,-2468.399658203125,-0.012147026136517525,-0.6951314210891724,-0.05529126897454262,0.7166503071784973,36.205474853515625,-40.999149322509766,-2481.866943359375,-0.6581616401672363,-0.04389825835824013,-0.7460219264030457,0.09136416018009186
2024/02/23/10:47:21.513675,4194,1708685241,512388154,,2.506835699081421,-1.1932587623596191,-0.8617169857025146,-63.82262420654297,137.88418579101562,-19.29857635498047,128.6481475830078,-187.38072204589844,-2468.451171875,-0.012070971541106701,-0.6950184106826782,-0.055293526500463486,0.7167609930038452,36.08198165893555,-40.45482635498047,-2481.785888671875,-0.6579583287239075,-0.04429103061556816,-0.7465614676475525,0.08817659318447113
2024/02/23/10:47:21.563046,4195,1708685241,562425705,,2.456808090209961,-1.1636321544647217,-0.930895209312439,-67.72061920166016,137.54898071289062,-16.365474700927734,128.64871215820312,-187.3936309814453,-2468.38134765625,-0.012452066875994205,-0.6951113343238831,-0.0549452044069767,0.7166911959648132,36.07105255126953,-40.73314666748047,-2481.845458984375,-0.6560112237930298,-0.04576772078871727,-0.7481831908226013,0.08818469196557999
