.header.stamp.secs,.header.stamp.nsecs,.polaris.position.x,.polaris.position.y,.polaris.position.z,.polaris.orientation.x,.polaris.orientation.y,.polaris.orientation.z,.polaris.orientation.w,.polaristool2.position.x,.polaristool2.position.y,.polaristool2.position.z,.polaristool2.orientation.x,.polaristool2.orientation.y,.polaristool2.orientation.z,.polaristool2.orientation.w
1708684970,340804208,135.3095703125,-90.5112838745117,-2576.56982421875,-0.003339945105836,-0.695158541202545,-0.061581864953041,0.716206073760986,47.9327049255371,78.1853942871094,-2572.23510742187,0.663857161998749,0.066521845757961,0.744870364665985,0.006052894983441
1708684970,390154074,135.316436767578,-90.5117416381836,-2576.59716796875,-0.004661068320274,-0.695022881031036,-0.060220196843147,0.716446101665497,47.9541053771973,77.9708786010742,-2572.369140625,0.662499904632568,0.067847914993763,0.745958209037781,0.00607513776049
1708684970,441237773,135.323745727539,-90.5012664794922,-2576.501953125,-0.004757722839713,-0.69519054889679,-0.06010839343071,0.716292202472687,47.9617958068848,77.9050827026367,-2572.56005859375,0.662126123905182,0.06806143373251,0.746272206306458,0.00587103003636
1708684970,490949610,135.313293457031,-90.5148391723633,-2576.48803710937,-0.005156553350389,-0.695258438587189,-0.059765983372927,0.716252148151398,47.9669189453125,77.8508148193359,-2572.5400390625,0.661828458309174,0.067836582660675,0.746560990810394,0.005287711042911
1708684970,540407837,135.312927246094,-90.5098037719727,-2576.62133789062,-0.003951082937419,-0.694826900959015,-0.060990918427706,0.716575264930725,47.9377174377441,77.9252777099609,-2572.56494140625,0.662692248821258,0.066514745354652,0.745919942855835,0.004272765014321
1708684970,590062517,135.312576293945,-90.517333984375,-2576.4658203125,-0.004454997368157,-0.695401728153229,-0.060393191874027,0.716065168380737,47.9912452697754,77.9024047851563,-2572.7177734375,0.662531435489655,0.063213519752026,0.746360659599304,0.001363648450933
1708684970,641054506,135.318099975586,-90.5126800537109,-2576.5224609375,-0.004686285275966,-0.695191264152527,-0.060214769095183,0.716282963752747,47.9343795776367,78.7779541015625,-2572.48046875,0.663679659366608,0.059038121253252,0.745680332183838,0.002152732107788
1708684970,689930297,135.322418212891,-90.5134887695312,-2576.6484375,-0.004684899467975,-0.69499409198761,-0.060197822749615,0.71647572517395,47.9483947753906,78.2513580322266,-2572.537109375,-0.66346287727356,-0.059866208583117,-0.745810329914093,3.26919907820411E-05
1708684970,740930167,135.313629150391,-90.5103225708008,-2576.53833007812,-0.003879047464579,-0.695221185684204,-0.060998823493719,0.716192483901978,47.9401245117188,78.3722534179688,-2572.6748046875,0.66279262304306,0.061078570783138,0.746305704116821,0.001772060059011
1708684970,790099132,135.3154296875,-90.5110244750977,-2576.57299804687,-0.003684510942549,-0.695060789585114,-0.061213184148073,0.716330885887146,47.9565277099609,78.0384902954102,-2572.75756835937,-0.662679314613342,-0.061070583760738,-0.746408998966217,0.000261720444541
1708684970,840987604,135.3046875,-90.5174560546875,-2576.58422851562,-0.004325801040977,-0.694764912128449,-0.060689192265272,0.716658771038055,47.9144592285156,78.1512985229492,-2572.88012695312,0.661012232303619,0.062739230692387,0.747744202613831,0.002275678096339
1708684970,890548239,135.318130493164,-90.5150375366211,-2576.53564453125,-0.005098175723106,-0.695060968399048,-0.059828840196133,0.716438949108124,47.9115982055664,78.2877578735352,-2573.10791015625,0.660677909851074,0.061367604881525,0.748155117034912,0.001626162906177
1708684970,940974492,135.310485839844,-90.5091552734375,-2576.54174804687,-0.003290088614449,-0.695181608200073,-0.061578586697579,0.716184198856354,47.8979072570801,78.5925521850586,-2573.27709960937,0.660546660423279,0.061530202627182,0.748250663280487,0.003613018197939
1708684970,990534587,135.305969238281,-90.5207443237305,-2576.7109375,-0.005011446774006,-0.694664180278778,-0.059903413057327,0.71681809425354,47.8757781982422,78.6667556762695,-2573.34155273437,0.661296963691711,0.060676995664835,0.747659802436829,0.003067622892559
1708684971,40930894,135.309143066406,-90.511848449707,-2576.53784179687,-0.004000874236226,-0.695219993591309,-0.060920014977455,0.716199576854706,47.8892478942871,78.7869644165039,-2573.6064453125,0.660176396369934,0.059171333909035,0.748772263526917,0.002458837348968
1708684971,90532918,135.313873291016,-90.5072479248047,-2576.53759765625,-0.004804709460586,-0.695239722728729,-0.06004348397255,0.716249525547028,47.8343887329102,79.2999114990234,-2573.54736328125,0.660763025283814,0.056772939860821,0.748436808586121,0.003373887157068
1708684971,140845277,135.324401855469,-90.521598815918,-2576.68383789062,-0.004248925950378,-0.694598495960236,-0.060746815055609,0.716815710067749,47.8487396240234,79.0803298950195,-2573.37841796875,0.660906612873077,0.055969662964344,0.748377203941345,0.001206510118209
1708684971,190513376,135.324935913086,-90.5075454711914,-2576.55346679687,-0.003589045954868,-0.69517582654953,-0.061268236488104,0.716215014457703,47.8651008605957,79.1362686157227,-2573.48217773437,0.661184728145599,0.056060902774334,0.74812376499176,0.001635851454921
1708684971,240560035,135.321838378906,-90.5057601928711,-2576.54809570312,-0.003402122762054,-0.695121109485626,-0.061459071934223,0.716252624988556,47.8619422912598,79.2165069580078,-2573.63793945312,0.660712122917175,0.056362368166447,0.74851655960083,0.002382234204561
1708684971,291146487,135.322723388672,-90.5062026977539,-2576.60913085937,-0.004017554223537,-0.694887638092041,-0.060838039964438,0.716528952121735,47.871166229248,79.0809326171875,-2573.71875,0.660557389259338,0.056519530713558,0.748643577098846,0.001526750158519
1708684971,340917832,135.318313598633,-90.5087356567383,-2576.59130859375,-0.004227759316564,-0.695086658000946,-0.060653738677502,0.716350376605987,47.8416633605957,79.1922149658203,-2573.60522460937,0.661055445671081,0.056129425764084,0.748232483863831,0.001843732083216
1708684971,390591026,135.312561035156,-90.5092163085937,-2576.52587890625,-0.004126954823732,-0.695007681846619,-0.060770768672228,0.716417610645294,47.8487586975098,79.2690658569336,-2573.435546875,0.660988986492157,0.056549429893494,0.748256504535675,0.002815105021
1708684971,440415257,135.326873779297,-90.506706237793,-2576.58935546875,-0.004062870051712,-0.695056319236755,-0.060815878212452,0.716366946697235,47.8480453491211,79.3525619506836,-2573.33374023437,0.661447405815125,0.056376829743385,0.747862935066223,0.003160354914144
1708684971,490890339,135.334106445313,-90.513069152832,-2576.6181640625,-0.003965395502746,-0.694771468639374,-0.060952804982662,0.716632068157196,47.9157371520996,78.9154968261719,-2573.59497070312,0.660889506340027,0.057664286345244,0.748262763023376,0.00163814635016
1708684971,541254320,135.327087402344,-90.5089416503906,-2576.4970703125,-0.004552135244012,-0.695526123046875,-0.06025280803442,0.715955495834351,47.9020881652832,78.8057632446289,-2573.61962890625,0.660339713096619,0.058448620140553,0.748686671257019,0.00186278030742
1708684971,591049478,135.305267333984,-90.5040283203125,-2576.57250976562,-0.00433209631592,-0.695132732391357,-0.060487657785416,0.716319024562836,47.8785133361816,78.628547668457,-2573.50634765625,0.65965062379837,0.059262365102768,0.749230206012726,0.001771974842995
1708684971,641241061,135.29573059082,-90.5131912231445,-2576.61987304687,-0.004488096106797,-0.694969356060028,-0.0604312941432,0.716481328010559,47.875919342041,78.6634826660156,-2573.0087890625,0.662065804004669,0.058907106518746,0.747125744819641,0.001401981688105
1708684971,690685471,135.287231445313,-90.5165405273437,-2576.6162109375,-0.004643199499697,-0.694848895072937,-0.060324184596539,0.716606199741364,47.855281829834,78.8374404907227,-2573.03344726562,0.661936104297638,0.05723224952817,0.74737161397934,0.000794485444203
1708684971,740462180,135.302520751953,-90.5160140991211,-2576.69213867187,-0.004158785101026,-0.694682538509369,-0.060835249722004,0.716727256774902,47.8967704772949,78.7242431640625,-2573.36791992187,0.660713672637939,0.058145720511675,0.748382091522217,0.000862103770487
1708684971,790692229,135.313827514648,-90.5096435546875,-2576.55444335937,-0.003893119981512,-0.695366561412811,-0.06099172309041,0.716051816940308,47.934871673584,78.6107635498047,-2573.494140625,0.660933911800385,0.059088535606861,0.74811327457428,0.001204642700031
1708684971,840184342,135.336883544922,-90.5081939697266,-2576.46557617187,-0.004177158232778,-0.695426940917969,-0.060666639357805,0.716019213199616,47.9230003356934,78.7346038818359,-2573.48803710937,0.660860240459442,0.058820143342018,0.748198568820953,0.001696030958556
1708684971,890670536,135.323593139648,-90.5109634399414,-2576.67724609375,-0.004299855791032,-0.694774627685547,-0.060618232935667,0.716655552387237,47.8954849243164,78.8179168701172,-2573.20092773437,0.661084651947022,0.05879844352603,0.748000681400299,0.002181195421144
1708684971,940354589,135.320648193359,-90.5126113891602,-2576.57958984375,-0.005169657990336,-0.695186316967011,-0.05974106118083,0.716324150562286,47.8963623046875,78.7645568847656,-2573.12426757812,0.662044644355774,0.059582568705082,0.74708765745163,0.002628716640174
1708684971,990081471,135.328063964844,-90.5183715820312,-2576.697265625,-0.004056923557073,-0.694916725158691,-0.060923278331757,0.716493248939514,47.9039688110352,78.7909317016602,-2573.0595703125,0.662208259105682,0.058671087026596,0.74701714515686,0.001798830111511
1708684972,40612463,135.325973510742,-90.5095748901367,-2576.58618164062,-0.004736775066704,-0.695250868797302,-0.060139186680317,0.716231107711792,47.9114761352539,78.779670715332,-2572.98803710938,0.662176012992859,0.058458253741264,0.747063100337982,0.001501481747255
1708684972,90567397,135.323181152344,-90.5088958740234,-2576.60107421875,-0.004437543451786,-0.695087969303131,-0.060432251542807,0.716366529464722,47.8905754089355,78.75439453125,-2572.873046875,0.662785887718201,0.058433901518583,0.746524274349213,0.00136415543966
1708684972,140665431,135.319885253906,-90.5086517333984,-2576.66040039062,-0.004292765632272,-0.694849848747253,-0.060619357973337,0.716582596302033,47.8776817321777,78.8152694702148,-2572.83740234375,0.662611842155456,0.057879135012627,0.746722340583801,0.001150193274952
1708684972,190839962,135.315826416016,-90.5057983398438,-2576.611328125,-0.00426549045369,-0.695007026195526,-0.060634940862656,0.716428935527802,47.8596916198731,78.8724136352539,-2572.95703125,0.662432789802551,0.058262206614018,0.746850073337555,0.001808036351576
1708684972,240413169,135.315155029297,-90.5038146972656,-2576.59692382812,-0.004658996593207,-0.695116519927979,-0.060176447033882,0.71635890007019,47.8912353515625,78.7690048217773,-2573.20483398437,0.661107301712036,0.059626832604408,0.747913062572479,0.002787839621305
1708684972,290565517,135.300537109375,-90.5103225708008,-2576.53540039062,-0.00461096689105,-0.694980561733246,-0.060357209295035,0.716475963592529,47.892749786377,78.7122344970703,-2573.19750976562,0.661432147026062,0.059916902333498,0.747602701187134,0.002762181218714
1708684972,340186075,135.317443847656,-90.5079116821289,-2576.7119140625,-0.003705564886332,-0.694702088832855,-0.061245858669281,0.716675817966461,47.866455078125,78.8381805419922,-2572.92944335937,0.662880957126617,0.057583082467318,0.746506571769714,0.000996427843347
1708684972,390367041,135.316101074219,-90.5024490356445,-2576.63427734375,-0.004571678116918,-0.694932758808136,-0.060258772224188,0.716530859470367,47.8805618286133,78.8067016601562,-2573.03442382812,0.661641836166382,0.058040421456099,0.747568786144257,0.00150889030192
1708684972,440617453,135.321655273438,-90.515266418457,-2576.58349609375,-0.004770166706294,-0.695034801959991,-0.060127191245556,0.716441631317139,47.8860282897949,78.8159866333008,-2573.11499023437,0.661732494831085,0.059262610971928,0.747388958930969,0.002785184187815
1708684972,490448406,135.317718505859,-90.4969940185547,-2576.5654296875,-0.004744567442685,-0.695249080657959,-0.060058701783419,0.71623957157135,47.8855819702148,78.718132019043,-2573.18701171875,0.661585509777069,0.058759711682797,0.747562170028687,0.001659263274632
1708684972,541129446,135.309356689453,-90.5093383789063,-2576.69482421875,-0.004536861553788,-0.694648623466492,-0.060390986502171,0.716795384883881,47.8844223022461,78.7370529174805,-2573.08740234375,0.661588311195374,0.059435963630676,0.747503817081451,0.002512973267585
1708684972,590976749,135.311431884766,-90.51123046875,-2576.56225585937,-0.004431354347616,-0.695196688175201,-0.060460571199656,0.716258645057678,47.8826942443848,78.6588363647461,-2572.99731445312,0.662163376808167,0.058796413242817,0.747047960758209,0.001373713486828
1708684972,640704359,135.30305480957,-90.50830078125,-2576.62890625,-0.004623373504728,-0.694800198078156,-0.060300059616566,0.716655552387237,47.8665542602539,78.7740020751953,-2572.91625976563,0.661566019058228,0.059173446148634,0.747544467449188,0.002481825184077
1708684972,690523657,135.31037902832,-90.507568359375,-2576.59912109375,-0.003903479315341,-0.694978892803192,-0.060990359634161,0.716428160667419,47.8772048950195,78.7155303955078,-2572.97265625,0.661911129951477,0.058473326265812,0.747296988964081,0.00132645398844
1708684972,740610801,135.304489135742,-90.5047760009766,-2576.69262695312,-0.002867580391467,-0.694810569286346,-0.062039494514465,0.716506242752075,47.8717803955078,78.6655731201172,-2573.0537109375,0.661876440048218,0.058786924928427,0.747303307056427,0.001216234872118
1708684972,790724101,135.310989379883,-90.5142593383789,-2576.65966796875,-0.00390040082857,-0.694828987121582,-0.061026319861412,0.716570496559143,47.8810691833496,78.7172470092773,-2573.31323242187,0.660972952842712,0.058664754033089,0.74811178445816,0.001398119609803
1708684972,841117898,135.306701660156,-90.5054016113281,-2576.60693359375,-0.00413302378729,-0.695019662380219,-0.060762722045183,0.716406643390656,47.8838157653809,78.6765365600586,-2573.52270507812,0.660438060760498,0.058817096054554,0.748571932315826,0.001482841558754
1708684972,891109191,135.32958984375,-90.5097732543945,-2576.59301757812,-0.004930506460369,-0.695050537586212,-0.059948649257422,0.716440260410309,47.8616714477539,78.8811340332031,-2573.5712890625,0.660238862037659,0.058314193040133,0.748785197734833,0.002207912504673
1708684972,941364158,135.331741333008,-90.505859375,-2576.6015625,-0.00398978870362,-0.694949567317963,-0.06091945618391,0.716462135314941,47.8872032165527,78.7998123168945,-2574.001953125,0.658604264259338,0.058550368994474,0.750205636024475,0.001951591577381
1708684972,990459329,135.330642700195,-90.5152816772461,-2576.64892578125,-0.003522584913298,-0.694949507713318,-0.061420369893313,0.716421902179718,47.8824081420899,78.9134674072266,-2574.1005859375,0.659241795539856,0.05833350867033,0.749660968780518,0.002420486416668
1708684973,41118734,135.329406738281,-90.5048980712891,-2576.64526367187,-0.004775887355208,-0.694851160049439,-0.060103867202997,0.71662163734436,47.86865234375,79.0299453735352,-2574.03759765625,0.658910930156708,0.057593505829573,0.750009298324585,0.002331188181415
1708684973,90485822,135.306762695313,-90.4994049072266,-2576.67431640625,-0.003288923529908,-0.694936573505402,-0.061597559601069,0.716420352458954,47.8485221862793,79.1613388061523,-2574.01635742187,0.659478306770325,0.057137086987496,0.749544203281403,0.00269890204072
1708684973,140920716,135.301940917969,-90.5014038085938,-2576.60888671875,-0.004111184738576,-0.695112645626068,-0.060732539743185,0.716319143772125,47.8262901306152,79.2361831665039,-2573.90869140625,0.660154223442078,0.058351572602987,0.748847782611847,0.004298749379814
1708684973,191032628,135.297637939453,-90.511833190918,-2576.57983398437,-0.004536747932434,-0.695122122764587,-0.060355551540852,0.71633917093277,47.8446464538574,79.0574569702148,-2574.12939453125,0.658954679965973,0.058130886405707,0.749927520751953,0.002875325269997
1708684973,241231868,135.316558837891,-90.505126953125,-2576.67529296875,-0.003827467095107,-0.694898188114166,-0.061077311635017,0.716499447822571,47.8413009643555,79.1947021484375,-2574.03051757812,0.659282743930817,0.058050040155649,0.749641597270966,0.003735827514902
1708684973,291621117,135.325531005859,-90.5141067504883,-2576.63891601562,-0.004817135166377,-0.694907665252685,-0.060117248445749,0.716565430164337,47.8435935974121,79.3025436401367,-2574.22924804687,0.658947944641113,0.058456182479858,0.749898672103882,0.004741358105093
1708684973,341286998,135.333557128906,-90.506233215332,-2576.61328125,-0.004014334175736,-0.695106506347656,-0.060831032693386,0.716317236423492,47.9000663757324,78.8164443969727,-2574.77294921875,0.656656503677368,0.0602758936584,0.751767933368683,0.003737285034731
1708684973,390912811,135.330429077148,-90.5010452270508,-2576.64965820312,-0.004540155641735,-0.69505774974823,-0.060292016714811,0.716407001018524,47.9344329833984,78.5166473388672,-2575.55737304687,0.654004633426666,0.061593420803547,0.753970086574554,0.003647794248536
1708684973,441176509,135.320281982422,-90.5045471191406,-2576.67456054687,-0.004375530406833,-0.694913446903229,-0.060510016977787,0.716529548168182,47.9960823059082,78.0474853515625,-2576.1943359375,0.652128338813782,0.06293822824955,0.755488157272339,0.002262973226607
1708684973,490739449,135.327362060547,-90.5060958862305,-2576.62231445312,-0.004087116569281,-0.695046305656433,-0.060811586678028,0.716376900672913,48.0508041381836,77.9354553222656,-2576.396484375,0.652606666088104,0.064303040504456,0.754955887794495,0.003360447706655
1708684973,541090192,135.333709716797,-90.5039978027344,-2576.6435546875,-0.004903167951852,-0.694987773895264,-0.059967964887619,0.71649968624115,48.0016899108887,78.3729705810547,-2576.14086914062,0.6531041264534,0.065355554223061,0.754410743713379,0.006940713617951
1708684973,591200327,135.340866088867,-90.5061340332031,-2576.82177734375,-0.003913588821888,-0.694493412971497,-0.061034798622131,0.716894865036011,47.9773788452148,78.7576446533203,-2575.52099609375,0.654747784137726,0.065102018415928,0.752990245819092,0.008532214909792
1708684973,641204576,135.349273681641,-90.5028686523437,-2576.7060546875,-0.003775740973651,-0.695109963417053,-0.061110395938158,0.716291427612305,48.0963935852051,77.746940612793,-2575.443359375,0.655389964580536,0.065129823982716,0.752471506595612,0.002963794860989
1708684973,691332329,135.329162597656,-90.4918975830078,-2576.72875976563,-0.003740942571312,-0.694744825363159,-0.061149384826422,0.716642439365387,47.9813385009766,78.1151657104492,-2575.212890625,0.655203282833099,0.064100816845894,0.752719283103943,0.003665899625048
1708684973,741310900,135.329238891602,-90.5077133178711,-2576.63671875,-0.003955025691539,-0.695158302783966,-0.060907695442438,0.71626079082489,48.000545501709,78.3499908447266,-2575.99975585937,0.653159976005554,0.06439732760191,0.754456102848053,0.005565164145082
1708684973,791824137,135.315658569336,-90.508415222168,-2576.75366210937,-0.003451509866863,-0.694793105125427,-0.061542347073555,0.71656346321106,48.0472717285156,78.3067626953125,-2577.64331054687,0.647981822490692,0.067280411720276,0.758627355098724,0.008802341297269
1708684973,842571372,135.320495605469,-90.5039825439453,-2576.68798828125,-0.005156128201634,-0.694852411746979,-0.059770323336125,0.716645777225494,48.1080474853516,77.8506164550781,-2579.05981445312,0.64167582988739,0.068975135684013,0.763825833797455,0.008038277737796
1708684973,890415905,135.325531005859,-90.5174407958984,-2576.70361328125,-0.002451624954119,-0.694928705692291,-0.062572576105595,0.716346740722656,48.2306861877441,77.0408935546875,-2579.59741210938,0.640857934951782,0.067540600895882,0.764678597450256,0.002473733620718
1708684973,941221096,135.333709716797,-90.5257797241211,-2576.716796875,-0.004719869699329,-0.695015668869019,-0.060205865651369,0.716453909873962,48.3196601867676,77.0542144775391,-2579.98168945312,-0.641886651515961,-0.061612285673618,-0.764315605163574,0.002660723170266
1708684973,991140736,135.332122802734,-90.5034103393555,-2576.63720703125,-0.004080912098289,-0.695162713527679,-0.060796033591032,0.716265261173248,48.2210922241211,77.6951904296875,-2579.73681640625,-0.643198013305664,-0.055907249450684,-0.763641476631165,0.004738710820675
1708684974,41243311,135.329254150391,-90.5070724487305,-2576.72705078125,-0.003645109012723,-0.694958984851837,-0.061203997582197,0.716430604457855,48.165584564209,78.498291015625,-2579.67553710938,-0.6445631980896,-0.052188958972693,-0.762759029865265,0.003639925736934
1708684974,91640137,135.338348388672,-90.5125885009766,-2576.71875,-0.003513338742778,-0.695079267024994,-0.061354257166386,0.716301679611206,48.1346206665039,78.9284057617188,-2579.23950195313,-0.647343456745148,-0.046867478638888,-0.760731518268585,0.006117063108832
1708684974,141517135,135.334991455078,-90.5177307128906,-2576.642578125,-0.005213869269937,-0.695135891437531,-0.05969225615263,0.716376841068268,48.0962867736816,79.2632369995117,-2578.48852539062,-0.650905072689056,-0.038883436471224,-0.758066117763519,0.01210242882371
1708684974,191899767,135.329376220703,-90.516357421875,-2576.60009765625,-0.004443112760782,-0.695236265659332,-0.060445047914982,0.716221511363983,48.2298774719238,78.1863861083984,-2578.08251953125,-0.653258740901947,-0.026899930089712,-0.756074786186218,0.029670435935259
1708684974,241444994,135.332733154297,-90.5115432739258,-2576.56201171875,-0.004667575005442,-0.69536429643631,-0.060140684247017,0.716121375560761,48.1503562927246,78.6294555664063,-2578.13012695313,-0.65261310338974,-0.01835548505187,-0.756635427474976,0.035524971783161
1708684974,291877440,135.325347900391,-90.5081024169922,-2576.58325195312,-0.00398269481957,-0.69525808095932,-0.060810867697001,0.71617203950882,48.1864700317383,78.7045211791992,-2578.36865234375,-0.65344101190567,-0.013134356588125,-0.755800724029541,0.040093857795
1708684974,341247578,135.326141357422,-90.5168075561523,-2576.7041015625,-0.003550179535523,-0.694957256317139,-0.061298087239266,0.716424703598022,48.2073631286621,78.2259292602539,-2578.46020507812,-0.652650535106659,-0.013184626586735,-0.756366074085236,0.042235266417265
1708684974,391290874,135.3154296875,-90.5065231323242,-2576.64624023437,-0.003770099021494,-0.694955766201019,-0.061053115874529,0.716445922851563,48.1856307983398,78.2862243652344,-2578.20336914062,-0.654342770576477,-0.013851216062903,-0.75494772195816,0.041201792657375
1708684974,442505083,135.312637329102,-90.5106735229492,-2576.67456054687,-0.00398967647925,-0.69504576921463,-0.060842368751764,0.716375350952148,48.1688461303711,78.8146743774414,-2577.97607421875,-0.655038714408875,-0.015763221308589,-0.754549562931061,0.036478992551565
1708684974,491613431,135.318908691406,-90.5221633911133,-2576.70654296875,-0.004470418207347,-0.695014297962189,-0.060439962893725,0.716437101364136,47.9964637756348,80.2227935791016,-2577.57885742188,-0.655863523483276,-0.015143636614084,-0.754140675067902,0.029758341610432
1708684974,541422009,135.31803894043,-90.5116729736328,-2576.537109375,-0.003897910006344,-0.695294678211212,-0.060932118445635,0.716126680374146,48.0780258178711,79.4360580444336,-2577.392578125,-0.655990064144135,-0.019136626273394,-0.753924429416657,0.030145164579153
1708684974,591439763,135.31526184082,-90.511100769043,-2576.69970703125,-0.003614971414208,-0.694775581359863,-0.061273939907551,0.716602623462677,48.1652679443359,78.8167266845703,-2577.10400390625,-0.656950891017914,-0.020795185118914,-0.75296550989151,0.032032173126936
1708684974,641085262,135.313659667969,-90.5104751586914,-2576.62719726562,-0.004079803358763,-0.69494354724884,-0.060771323740482,0.716480016708374,48.1328048706055,79.0425796508789,-2577.0498046875,-0.656781792640686,-0.020303057506681,-0.753156900405884,0.03130716457963
1708684974,691953117,135.312103271484,-90.5222396850586,-2576.68359375,-0.004416068550199,-0.694764912128449,-0.060497052967548,0.716674506664276,48.1612968444824,79.2158355712891,-2577.13623046875,-0.65806519985199,-0.019711326807737,-0.752052664756775,0.031279422342777
1708684974,741580285,135.301818847656,-90.5106353759766,-2576.51196289062,-0.004884765017778,-0.695451974868774,-0.05993926897645,0.716051638126373,48.1278839111328,79.4432220458984,-2577.16040039063,-0.658039748668671,-0.018199382349849,-0.752112865447998,0.031283512711525
1708684974,791444193,135.318450927734,-90.5128326416016,-2576.65869140625,-0.003883584868163,-0.695043087005615,-0.060981214046478,0.716366767883301,48.153923034668,79.4118499755859,-2577.41528320313,-0.657508134841919,-0.019976183772087,-0.752593576908112,0.029781732708216
1708684974,841801372,135.322814941406,-90.5212173461914,-2576.60595703125,-0.004206112585962,-0.695417940616608,-0.060658864676952,0.716028392314911,48.1656684875488,79.1755142211914,-2577.43798828125,-0.656944155693054,-0.018315525725484,-0.753009140491486,0.032652284950018
1708684974,891802864,135.322189331055,-90.516845703125,-2576.69360351563,-0.003322763368487,-0.694809377193451,-0.061567962169647,0.716546058654785,48.1925239562988,78.9486236572266,-2577.26733398437,-0.657550990581512,-0.017670143395662,-0.752418875694275,0.034354235976935
1708684974,941791571,135.326721191406,-90.5222778320313,-2576.49731445313,-0.004038157407194,-0.695531666278839,-0.060838796198368,0.715903639793396,48.1468162536621,79.0520248413086,-2577.10205078125,-0.65796285867691,-0.018800610676408,-0.752111852169037,0.032545294612646
1708684974,991787896,135.318176269531,-90.5247344970703,-2576.56127929687,-0.004283473826945,-0.695199906826019,-0.060585264116526,0.716245889663696,48.2872543334961,77.5190124511719,-2577.67358398437,-0.655344128608704,-0.022651609033346,-0.754069685935974,0.037281349301338
1708684975,41019866,135.315734863281,-90.531120300293,-2576.68701171875,-0.004133854527026,-0.694961190223694,-0.060748361051083,0.716464579105377,48.5859069824219,75.0110015869141,-2578.11572265625,-0.654385805130005,-0.028763391077519,-0.754300653934479,0.044524405151606
1708684975,91006137,135.292419433594,-90.5271377563477,-2576.56591796875,-0.004340506158769,-0.695302307605743,-0.060521248728037,0.716151595115662,48.6913986206055,73.6817626953125,-2578.07104492187,-0.653604805469513,-0.033397071063519,-0.754624605178833,0.047191735357046
1708684975,141621213,135.298004150391,-90.5268936157227,-2576.6337890625,-0.003626840189099,-0.694827914237976,-0.06127592921257,0.716551661491394,48.6484565734863,73.4445648193359,-2577.37939453125,-0.655686855316162,-0.037307299673557,-0.752829968929291,0.043931309133768
1708684975,191332544,135.298858642578,-90.527458190918,-2576.59765625,-0.004603289533407,-0.695208072662354,-0.060263335704804,0.716263175010681,48.5416793823242,74.5165863037109,-2577.11254882812,-0.657546818256378,-0.037238471210003,-0.751570343971252,0.037247564643622
1708684975,241284865,135.313537597656,-90.5141067504883,-2576.46997070312,-0.003937096334994,-0.695403695106506,-0.060880616307259,0.716024994850159,48.3949546813965,76.3026351928711,-2576.79418945313,-0.660105526447296,-0.035943105816841,-0.749753415584564,0.028959037736058
1708684975,291647637,135.308547973633,-90.519287109375,-2576.6328125,-0.004478135146201,-0.695081830024719,-0.060442183166742,0.716371357440949,48.1456260681152,78.5459442138672,-2576.12109375,-0.661967813968658,-0.032406728714705,-0.748550951480866,0.020492415875197
1708684975,341566361,135.3076171875,-90.5123825073242,-2576.70068359375,-0.003649750258774,-0.694970965385437,-0.061242461204529,0.716415703296661,47.9440689086914,80.5382308959961,-2575.982421875,-0.662834763526917,-0.030811017379165,-0.748039722442627,0.011714887805283
1708684975,391574782,135.300903320313,-90.5073852539062,-2576.69677734375,-0.003537075361237,-0.694830775260925,-0.06135244295001,0.716542780399323,48.0214920043945,79.821044921875,-2576.46557617187,-0.662136614322662,-0.032363366335631,-0.748541235923767,0.014618302695453
1708684975,441563700,135.297027587891,-90.5119171142578,-2576.62158203125,-0.004474128130823,-0.694831550121307,-0.060423590242863,0.716615736484528,48.0594291687012,79.4776763916016,-2577.03466796875,-0.65975296497345,-0.034309305250645,-0.750563979148865,0.014238229952753
1708684975,491784734,135.307601928711,-90.5166168212891,-2576.61669921875,-0.004715929273516,-0.694957077503204,-0.060216587036848,0.716509819030762,48.2157173156738,77.6262664794922,-2577.29345703125,-0.658724427223206,-0.037557922303677,-0.751156151294708,0.020879996940494
1708684975,540912607,135.304779052734,-90.5155029296875,-2576.56958007813,-0.003695215797052,-0.694981276988983,-0.061169315129519,0.716411650180817,48.2880706787109,76.7367858886719,-2577.36328125,-0.658442378044128,-0.039332501590252,-0.751253485679626,0.022907765582204
1708684975,590785418,135.317596435547,-90.5275726318359,-2576.67993164062,-0.001982723362744,-0.694611430168152,-0.062992937862873,0.716619074344635,48.2998237609863,77.1019744873047,-2577.44750976562,-0.660526752471924,-0.039431519806385,-0.749523878097534,0.019065611064434
1708684975,641738516,135.289947509766,-90.5134429931641,-2576.568359375,-0.003854629816487,-0.694939196109772,-0.061009254306555,0.716465294361115,46.2639999389648,78.2994537353516,-2577.95776367188,-0.659729778766632,-0.041369445621967,-0.75026136636734,0.012369653210044
1708684975,691675507,135.290786743164,-90.5215225219727,-2576.62451171875,-0.003896364942193,-0.69505101442337,-0.061053991317749,0.716352820396423,46.3437805175781,78.0205993652344,-2579.28369140625,-0.65908807516098,-0.04338014125824,-0.75068324804306,0.01399249304086
1708684975,741391153,135.30696105957,-90.5001220703125,-2576.65844726562,-0.003454423742369,-0.694751501083374,-0.061540815979242,0.716603934764862,46.5507774353027,77.2183685302734,-2580.74047851562,-0.655688405036926,-0.046940926462412,-0.753410756587982,0.015538828447461
1708684975,791009910,135.3408203125,-90.4867858886719,-2576.66748046875,-0.003474244149402,-0.695077896118164,-0.061364006251097,0.716302394866943,46.5853271484375,76.8328857421875,-2580.95092773438,-0.654840111732483,-0.046274814754725,-0.75412929058075,0.018222952261567
1708684975,841514249,135.360366821289,-90.4604110717773,-2576.67065429687,-0.003741543740034,-0.695189476013184,-0.061194907873869,0.716207206249237,46.5853042602539,76.8281631469727,-2580.80151367187,-0.653902053833008,-0.045887522399426,-0.754963636398315,0.018341889604926
1708684975,891615005,135.363189697266,-90.4579467773437,-2576.80517578125,-0.003184462198988,-0.695054054260254,-0.061743266880512,0.716294288635254,46.6306228637695,75.9950256347656,-2580.91381835938,-0.653447210788727,-0.04849511384964,-0.755145072937012,0.020270224660635
1708684975,941682760,135.354370117188,-90.4621200561524,-2576.86328125,-0.003887189785019,-0.694690585136414,-0.061120815575123,0.716696679592133,46.8094787597656,74.3709869384766,-2581.46899414062,-0.651993811130524,-0.052368044853211,-0.755999863147736,0.025016175583005
1708684975,991595626,135.348541259766,-90.4638137817383,-2576.78515625,-0.003325744764879,-0.694620728492737,-0.061596304178238,0.71672648191452,46.9139022827148,72.4225463867188,-2581.9052734375,-0.650795221328735,-0.056700084358454,-0.75660115480423,0.028378738090396
1708684976,41752261,135.359375,-90.4647598266602,-2576.6923828125,-0.00397459929809,-0.695170044898987,-0.060875669121742,0.716252028942108,46.9595146179199,71.9579696655273,-2581.99340820312,-0.651038289070129,-0.058461431413889,-0.756224811077118,0.029248356819153
1708684976,91119533,135.368988037109,-90.4651412963867,-2576.7880859375,-0.003416455117986,-0.694931983947754,-0.061495922505856,0.716432929039001,46.9595489501953,72.1406478881836,-2581.84350585937,-0.652700662612915,-0.058458428829908,-0.754821419715881,0.02844337746501
1708684976,141653188,135.368759155273,-90.471565246582,-2576.72680664062,-0.004768466111273,-0.695148766040802,-0.060139980167151,0.716329991817474,46.8322677612305,73.5414276123047,-2581.7509765625,-0.654203176498413,-0.060276631265879,-0.753644466400147,0.020123306661844
1708684976,191213741,135.363616943359,-90.4715805053711,-2576.82348632812,-0.003402452217415,-0.694833219051361,-0.061604660004377,0.716519415378571,46.605037689209,75.4231643676758,-2581.53784179687,-0.65552431344986,-0.058876428753138,-0.752790987491608,0.011276910081506
1708684976,241573854,135.359375,-90.4614181518555,-2576.7392578125,-0.004019017331302,-0.694832444190979,-0.060933135449886,0.716574430465698,46.5116920471191,76.0717086791992,-2580.93896484375,-0.656818866729736,-0.058747254312039,-0.751721262931824,0.007268644869328
1708684976,291921235,135.360794067383,-90.4582672119141,-2576.72583007812,-0.004262863192707,-0.694908618927002,-0.060598850250244,0.716527462005615,46.3894500732422,77.0989379882812,-2580.16455078125,-0.658274948596954,-0.057878468185663,-0.750545620918274,0.002325817244127
1708684976,341564421,135.357421875,-90.4468536376953,-2576.70336914062,-0.003233523340896,-0.695067465305328,-0.06162891164422,0.716290891170502,46.2664184570312,78.3562774658203,-2579.32666015625,0.662232756614685,0.055867567658424,0.747209191322327,0.002219908172265
1708684976,391616081,135.361022949219,-90.4551239013672,-2576.80029296875,-0.00401127198711,-0.694796979427338,-0.06086366251111,0.716614723205566,46.2545623779297,78.6330413818359,-2579.08569335937,0.663492679595947,0.054700437933207,0.746175944805145,0.002605638001114
1708684976,441585126,135.360061645508,-90.4463882446289,-2576.61181640625,-0.004622892010957,-0.695331811904907,-0.060154438018799,0.716152012348175,46.4036712646484,77.35302734375,-2579.109375,-0.662788510322571,-0.055970896035433,-0.746708333492279,0.002303707413375
1708684976,491856876,135.358367919922,-90.4524688720703,-2576.64624023437,-0.00407165940851,-0.695493578910828,-0.060714732855558,0.715950965881348,46.4914627075195,75.4260711669922,-2578.90405273438,-0.663770079612732,-0.05926488339901,-0.74554705619812,0.007521126419306
1708684976,541596471,135.345275878906,-90.4803161621094,-2576.8193359375,-0.003252417314798,-0.694508910179138,-0.06160369887948,0.716834485530853,46.3347320556641,71.4015045166016,-2579.6044921875,-0.661714971065521,-0.065704487264156,-0.746692836284637,0.016310121864081
1708684976,590875536,135.3271484375,-90.4666519165039,-2576.58764648437,-0.003891373518854,-0.695422232151032,-0.061017960309982,0.71599555015564,44.9322547912598,63.9585304260254,-2581.40454101563,-0.658424139022827,-0.07515998929739,-0.747991323471069,0.036572989076376
1708684976,641743785,135.313568115234,-90.5220413208008,-2576.73779296875,-0.00340355746448,-0.694049656391144,-0.061484105885029,0.717288792133331,44.0872039794922,55.9132308959961,-2583.55346679688,-0.655953586101532,-0.088180854916573,-0.747529327869415,0.056115090847015
1708684976,690646141,135.3046875,-90.5305786132812,-2576.70629882812,-0.003916935995221,-0.6939337849617,-0.060943283140659,0.71744441986084,44.5548667907715,53.7416343688965,-2583.95141601562,-0.656145453453064,-0.098108351230621,-0.745940566062927,0.058485914021731
1708684976,742004728,135.310394287109,-90.4844741821289,-2576.53100585937,-0.003451113821939,-0.694682836532593,-0.061515416949987,0.716672658920288,44.1351089477539,55.4959907531738,-2582.50830078125,-0.654006123542785,-0.100853085517883,-0.74806934595108,0.049968753010035
1708684976,792819062,135.326782226563,-90.4902725219727,-2576.63623046875,-0.003045285819098,-0.694369256496429,-0.06194881349802,0.716940999031067,43.7018356323242,57.163745880127,-2580.18359375,-0.652531445026398,-0.101001799106598,-0.749729096889496,0.043676417320967
1708684976,841882447,135.321807861328,-90.449333190918,-2576.490234375,-0.002430613618344,-0.694786131381989,-0.062483549118042,0.716492891311646,43.3341217041016,58.3854942321777,-2578.58959960937,-0.651248455047607,-0.10029399394989,-0.751228809356689,0.038364306092262
1708684976,891712483,135.310302734375,-90.474967956543,-2576.56518554688,-0.002849414944649,-0.694583654403687,-0.062076400965452,0.716723084449768,43.0165596008301,59.5276412963867,-2578.45166015625,-0.64928925037384,-0.097904801368713,-0.75337690114975,0.035517405718565
1708684976,941817528,135.295486450195,-90.4788284301758,-2576.60693359375,-0.003389946185052,-0.69441145658493,-0.06147837638855,0.716939091682434,42.9736747741699,60.0629119873047,-2580.109375,-0.644470691680908,-0.096547357738018,-0.757707834243774,0.034856259822846
1708684976,992169085,135.297180175781,-90.4922485351563,-2576.62475585937,-0.002695140661672,-0.694378137588501,-0.062205120921135,0.716911613941193,43.0998611450195,60.1892242431641,-2582.3984375,-0.639143228530884,-0.091887675225735,-0.76247501373291,0.041042730212212
1708684977,42730288,135.307342529297,-90.4754257202148,-2576.56640625,-0.003539036493748,-0.6948361992836,-0.06131186708808,0.716540992259979,43.6147117614746,59.5923957824707,-2585.6689453125,-0.630688786506653,-0.088550209999085,-0.769307911396027,0.050555650144816
1708684977,92738207,135.322174072266,-90.492301940918,-2576.65673828125,-0.003503076499328,-0.694870531558991,-0.061319623142481,0.716507196426392,44.0883255004883,59.0254783630371,-2589.44360351563,-0.62281459569931,-0.083604909479618,-0.775561153888702,0.060142658650875
1708684977,141708484,135.325271606445,-90.4542465209961,-2576.61352539062,-0.005115136969835,-0.695113241672516,-0.059777859598398,0.716392338275909,44.7258377075195,58.5098114013672,-2593.81640625,-0.614487051963806,-0.081244722008705,-0.782016098499298,0.065235741436482
1708684977,192090362,135.349365234375,-90.4618911743164,-2576.76318359375,-0.004461929667741,-0.694764077663422,-0.060546416789293,0.716670870780945,45.3037109375,57.9165573120117,-2596.93310546875,-0.607333958148956,-0.077343225479126,-0.787465155124664,0.071148537099362
1708684977,241251278,135.397277832031,-90.4090042114258,-2576.81201171875,-0.003763009095564,-0.695033848285675,-0.06115784868598,0.716361284255981,45.1982727050781,59.0184020996094,-2597.7607421875,-0.604757189750671,-0.073956705629826,-0.789971768856049,0.068875402212143
1708684977,292098597,135.438537597656,-90.3640823364258,-2576.7529296875,-0.00413809530437,-0.69530600309372,-0.060836412012577,0.716122448444366,44.823486328125,59.824878692627,-2596.26684570312,-0.607519388198853,-0.072213634848595,-0.788265287876129,0.065903760492802
1708684977,341760103,135.456268310547,-90.3511734008789,-2576.8779296875,-0.00381936901249,-0.69516533613205,-0.061183430254459,0.716231226921081,44.5576133728027,60.1470222473145,-2594.58081054687,-0.612036108970642,-0.072149902582169,-0.785024404525757,0.062792830169201
1708684977,391882524,135.451538085938,-90.3630981445312,-2576.79174804688,-0.003519541351125,-0.695240318775177,-0.06149522960186,0.716133236885071,44.4310913085937,60.2142333984375,-2593.39721679687,-0.616890907287598,-0.07370025664568,-0.781286537647247,0.060043163597584
1708684977,442007834,135.419311523438,-90.3731994628906,-2576.84399414063,-0.004075828939676,-0.694858014583588,-0.060878526419401,0.716553926467896,44.3712501525879,60.3272552490234,-2592.98583984375,-0.617507040500641,-0.074135132133961,-0.780812084674835,0.059341982007027
1708684977,491995650,135.392272949219,-90.4122161865234,-2576.84033203125,-0.005056946538389,-0.694927930831909,-0.059925597161055,0.716560184955597,44.3716659545899,60.1860694885254,-2593.03344726563,-0.616336286067963,-0.07502668350935,-0.781659960746765,0.059230949729681
1708684977,542011679,135.369934082031,-90.4163208007813,-2576.67626953125,-0.003619674826041,-0.695049524307251,-0.061298590153456,0.716334760189056,44.3135490417481,60.0206756591797,-2592.947265625,-0.615115225315094,-0.074909962713719,-0.782575368881226,0.059980217367411
1708684977,591971471,135.361236572266,-90.4266586303711,-2576.53881835938,-0.004390042740852,-0.695380449295044,-0.060446813702583,0.71608167886734,44.0666046142578,60.5784683227539,-2592.5458984375,-0.613762438297272,-0.073499523103237,-0.783745646476746,0.060301765799522
1708684977,642023305,135.332290649414,-90.454231262207,-2576.57397460938,-0.004123914521188,-0.69500207901001,-0.060811910778284,0.716419637203217,43.8024673461914,61.625732421875,-2592.09619140625,-0.613887786865234,-0.072908446192741,-0.783990204334259,0.056440599262714
1708684977,691576809,135.317535400391,-90.4654388427734,-2576.5595703125,-0.004610951989889,-0.695140540599823,-0.060270801186562,0.716327965259552,43.5615539550781,62.944206237793,-2591.5341796875,-0.617712438106537,-0.069573409855366,-0.781467914581299,0.053840201348066
1708684977,741967747,135.307403564453,-90.4755630493164,-2576.55859375,-0.003435917431489,-0.695191204547882,-0.061404947191477,0.716189086437225,43.4269638061523,64.1729507446289,-2591.33447265625,-0.62094384431839,-0.067812226712704,-0.779386281967163,0.048860546201468
1708684977,791261275,135.313522338867,-90.4676742553711,-2576.68041992188,-0.003994991071522,-0.694876611232758,-0.060835827142,0.716539978981018,43.3352813720703,64.8319625854492,-2591.369140625,-0.62147730588913,-0.065759018063545,-0.779166996479034,0.048379547894001
1708684977,841877392,135.315948486328,-90.456901550293,-2576.61450195312,-0.004534545354545,-0.694839239120483,-0.060404557734728,0.716609477996826,43.476978302002,64.3473739624023,-2591.74194335937,-0.620348155498505,-0.06754095852375,-0.779877662658691,0.048961859196425
1708684977,891223766,135.339813232422,-90.4625396728516,-2576.63623046875,-0.004609206225723,-0.695160210132599,-0.060281876474619,0.716307997703552,43.579029083252,64.1835708618164,-2592.05419921875,-0.619161427021027,-0.069080747663975,-0.780737221240997,0.048128575086594
1708684977,941618389,135.348709106445,-90.4345703125,-2576.68188476562,-0.003909105435014,-0.694941937923431,-0.06103602796793,0.716460108757019,43.5270195007324,64.2151794433594,-2591.76049804688,-0.620297133922577,-0.067691422998905,-0.779853105545044,0.049784623086453
1708684977,991487271,135.367889404297,-90.4237289428711,-2576.7412109375,-0.004113125614822,-0.694927334785461,-0.060776624828577,0.716495096683502,43.5488967895508,64.1816940307617,-2591.76684570312,-0.619672060012817,-0.068393163383007,-0.780313789844513,0.049388706684113
1708684978,41637793,135.366882324219,-90.4295501708984,-2576.66333007813,-0.003708260366693,-0.695000171661377,-0.061243329197168,0.716386914253235,43.691463470459,63.6769866943359,-2592.03979492188,-0.619556486606598,-0.071636401116848,-0.78014874458313,0.048846006393433
1708684978,91318059,135.370086669922,-90.4270095825195,-2576.69189453125,-0.004483552649617,-0.694977879524231,-0.060439001768828,0.716472446918487,43.7089309692383,63.8025054931641,-2591.98291015625,-0.620172679424286,-0.071734197437763,-0.779698193073273,0.048070911318064
1708684978,141596835,135.366027832031,-90.4344253540039,-2576.70751953125,-0.004788339138031,-0.695075213909149,-0.060153167694807,0.71640008687973,43.5246887207031,64.7425079345703,-2591.86083984375,-0.620063185691834,-0.068907104432583,-0.780141115188599,0.046402890235186
1708684978,191241345,135.364364624023,-90.425407409668,-2576.70043945313,-0.004123934078962,-0.694889426231384,-0.06082433834672,0.716527760028839,43.5426445007324,64.8502655029297,-2592.16870117187,-0.619975805282593,-0.067521743476391,-0.780286490917206,0.047157380729914
1708684978,241882871,135.363952636719,-90.4249725341797,-2576.70727539062,-0.00388970063068,-0.695004761219025,-0.061030242592096,0.716399729251862,43.571533203125,64.8299102783203,-2592.54150390625,-0.619782388210297,-0.066802315413952,-0.780478537082672,0.047545041888952
1708684978,291012762,135.367980957031,-90.4244842529297,-2576.69604492188,-0.004473191220313,-0.695028424263001,-0.060427911579609,0.716424405574799,43.6006851196289,64.4446640014648,-2592.4609375,-0.619109869003296,-0.065714038908482,-0.780933260917664,0.050278373062611
1708684978,341468218,135.376312255859,-90.4226684570313,-2576.74340820312,-0.004558137152344,-0.695072293281555,-0.060355994850397,0.716387391090393,43.499324798584,64.7579879760742,-2591.9951171875,-0.619967103004456,-0.064722910523415,-0.780446887016296,0.048523280769587
1708684978,391698504,135.36328125,-90.4233856201172,-2576.67114257812,-0.003856643335894,-0.695049941539764,-0.06111666187644,0.716348707675934,43.319694519043,65.4008331298828,-2591.41333007812,-0.621035993099213,-0.063437022268772,-0.779817402362824,0.046635538339615
1708684978,441676711,135.365936279297,-90.4241714477539,-2576.57690429687,-0.003701813751832,-0.695462942123413,-0.061183631420136,0.715942859649658,43.3622131347656,65.1448593139648,-2591.54174804687,-0.620559453964233,-0.0629787966609,-0.780114531517029,0.048590432852507
1708684978,491036720,135.354415893555,-90.4232025146484,-2576.74365234375,-0.004003251437098,-0.694790780544281,-0.060947734862566,0.71661365032196,43.4405059814453,64.8832321166992,-2591.50610351562,-0.621921002864838,-0.063146993517876,-0.778917968273163,0.050135526806116
1708684978,541521384,135.377838134766,-90.4137115478516,-2576.8076171875,-0.003371224505827,-0.694472372531891,-0.061595778912306,0.716870069503784,43.4642868041992,64.8050918579102,-2591.60375976563,-0.621391654014587,-0.061597421765328,-0.779353559017181,0.051828611642122
1708684978,591262450,135.376708984375,-90.4129104614258,-2576.7431640625,-0.005249015521258,-0.695048093795776,-0.059673063457012,0.716463327407837,43.5368537902832,64.3958053588867,-2591.75708007812,-0.620856285095215,-0.06211069598794,-0.779614567756653,0.05367374047637
1708684978,641585479,135.383850097656,-90.4265747070312,-2576.64111328125,-0.004039733670652,-0.695293545722961,-0.060808941721916,0.71613746881485,43.7218399047852,63.8112373352051,-2591.8984375,-0.620777487754822,-0.063431680202484,-0.779456615447998,0.055309768766165
1708684978,691400372,135.372039794922,-90.4324493408203,-2576.6845703125,-0.004727936349809,-0.695136487483978,-0.060169730335474,0.716339707374573,43.740852355957,63.7201728820801,-2591.92138671875,-0.620917022228241,-0.063355728983879,-0.779321074485779,0.055738374590874
1708684978,741581146,135.357635498047,-90.4204254150391,-2576.65673828125,-0.004229737911373,-0.694987177848816,-0.06069016829133,0.716443717479706,43.7756614685059,63.4017219543457,-2591.64819335937,-0.620826601982117,-0.06415106356144,-0.779230654239654,0.057083241641522
1708684978,791591427,135.360137939453,-90.4526443481445,-2576.62353515625,-0.004431014414877,-0.695375919342041,-0.06045762449503,0.716084897518158,43.8486709594727,63.1351623535156,-2591.78100585937,-0.620510637760162,-0.063918970525265,-0.779380917549133,0.058705348521471
1708684978,842143250,135.345672607422,-90.4471664428711,-2576.55346679687,-0.004031207412481,-0.695297062397003,-0.060893688350916,0.71612685918808,44.1665992736816,62.9372787475586,-2591.77465820312,-0.621370911598206,-0.064817726612091,-0.778503477573395,0.060243412852287
1708684978,891469876,135.329986572266,-90.4589462280273,-2576.68701171875,-0.003901905380189,-0.694877803325653,-0.061102993786335,0.716516613960266,44.4695129394531,63.3769226074219,-2592.14013671875,-0.62316370010376,-0.064291350543499,-0.777128577232361,0.060040432959795
1708684978,941941837,135.313293457031,-90.4581756591797,-2576.56591796875,-0.00450631370768,-0.695161461830139,-0.060403414070606,0.716297209262848,46.7674598693848,65.9004058837891,-2591.73876953125,-0.626923680305481,-0.062272470444441,-0.774674236774445,0.054485637694597
1708684978,991211635,135.314910888672,-90.4797134399414,-2576.63549804687,-0.002893117256463,-0.695044279098511,-0.062143411487341,0.716270387172699,47.7720985412598,68.9808502197266,-2590.88671875,-0.624143242835999,-0.059724774211645,-0.777557253837585,0.047780014574528
1708684979,41720202,135.257965087891,-90.5047912597656,-2576.5830078125,-0.004009730648249,-0.695106327533722,-0.06103976815939,0.716299712657928,48.061710357666,68.5921783447266,-2590.1435546875,-0.622754156589508,-0.057076584547758,-0.77870911359787,0.050315745174885
1708684979,91814250,135.243789672852,-90.517463684082,-2576.54809570312,-0.003715145867318,-0.69483894109726,-0.061150182038546,0.716551244258881,47.9720573425293,68.4247512817383,-2590.0322265625,-0.623820900917053,-0.055479910224676,-0.777890264987946,0.051538459956646
1708684979,141959273,135.223052978516,-90.5557708740234,-2576.38940429687,-0.003650076920167,-0.695094764232636,-0.061171025037766,0.716301620006561,48.0939674377441,68.1986618041992,-2590.57470703125,-0.623875975608826,-0.054625198245049,-0.777837634086609,0.052569475024939
1708684979,191685924,135.245391845703,-90.5496215820313,-2576.53466796875,-0.00449908291921,-0.6948401927948,-0.060385297983885,0.716610431671143,48.2472610473633,67.9846420288086,-2590.5166015625,-0.627527475357056,-0.054336875677109,-0.774890422821045,0.052930120378733
1708684979,242105202,135.291809082031,-90.4955978393555,-2576.61743164063,-0.003576923860237,-0.694871723651886,-0.061387293040753,0.716499924659729,48.1388397216797,67.9536590576172,-2589.509765625,-0.630810856819153,-0.052730780094862,-0.772224307060242,0.054467741400004
1708684979,291748432,135.338073730469,-90.4561386108398,-2576.78344726562,-0.004074854776263,-0.694731831550598,-0.060964304953814,0.716668963432312,47.9684448242188,67.2018890380859,-2588.27416992187,-0.631602942943573,-0.053518440574408,-0.771295785903931,0.057587616145611
1708684979,341884134,135.393127441406,-90.4131469726562,-2576.79931640625,-0.003705650568008,-0.695041656494141,-0.061280246824026,0.716343581676483,48.091423034668,65.81591796875,-2587.94799804688,-0.632824778556824,-0.055454138666391,-0.769969880580902,0.060033217072487
1708684979,391339535,135.397979736328,-90.392204284668,-2576.81127929688,-0.003549135290086,-0.694706737995148,-0.061489302664995,0.716651260852814,48.0834045410156,63.6975708007813,-2588.5,-0.632683098316193,-0.056694652885199,-0.769465744495392,0.066485293209553
1708684979,441739039,135.424468994141,-90.4061889648438,-2576.63208007812,-0.004855261649936,-0.695357382297516,-0.060081500560045,0.716131806373596,48.3142395019531,62.3282852172852,-2589.12524414063,-0.629270970821381,-0.058638397604227,-0.771731019020081,0.070786707103252
1708684979,491487396,135.424987792969,-90.3851776123047,-2576.75537109375,-0.003282755846158,-0.694767713546753,-0.061771664768458,0.716569125652313,48.4522819519043,61.5158462524414,-2589.11450195313,-0.631071209907532,-0.061007834970951,-0.769974172115326,0.071881093084812
1708684979,541697227,135.44889831543,-90.3922119140625,-2576.83618164062,-0.003979094792157,-0.695054411888123,-0.061075102537871,0.716347217559814,48.5594940185547,60.7756309509277,-2589.197265625,-0.630469262599945,-0.062822431325913,-0.770120322704315,0.074003778398037
1708684979,592025524,135.48046875,-90.3339385986328,-2576.857421875,-0.002893349155784,-0.694616436958313,-0.062208335846663,0.716679692268372,48.7093772888184,60.0883369445801,-2589.650390625,-0.630044519901276,-0.06410650908947,-0.770198225975037,0.075689904391766
1708684979,642158647,135.518096923828,-90.3153991699219,-2577.08471679687,-0.003864398226142,-0.694640874862671,-0.061411660164595,0.716720104217529,48.725212097168,60.1304893493652,-2589.80615234375,-0.629700422286987,-0.064874410629273,-0.7705038189888,0.074783384799957
1708684979,691986697,135.534637451172,-90.2922210693359,-2576.93505859375,-0.004424493294209,-0.695247411727905,-0.060689181089401,0.716190159320831,48.6090850830078,60.9195289611816,-2590.16552734375,-0.627929031848908,-0.064652815461159,-0.772326827049255,0.070967815816403
1708684979,742110102,135.541046142578,-90.2584838867188,-2577.09106445312,-0.003133264370263,-0.694811701774597,-0.062028277665377,0.716504991054535,48.5862045288086,62.0425224304199,-2590.4130859375,-0.62740284204483,-0.064785659313202,-0.773103654384613,0.066927716135979
1708684979,792220836,135.544052124023,-90.2867965698242,-2577.052734375,-0.00311518390663,-0.694833159446716,-0.062016110867262,0.716485321521759,48.7092094421387,61.5969161987305,-2591.0205078125,-0.627133548259735,-0.065476298332214,-0.773194968700409,0.067719705402851
1708684979,842387008,135.551330566406,-90.264030456543,-2577.017578125,-0.005166804883629,-0.695348381996155,-0.059949919581413,0.716149389743805,48.7536506652832,61.7021369934082,-2590.83984375,-0.628228008747101,-0.066167317330837,-0.772246837615967,0.067721053957939
1708684979,892083695,135.556640625,-90.2258453369141,-2577.140625,-0.004264132119715,-0.69478440284729,-0.060932498425245,0.716619610786438,48.5863075256348,61.9646987915039,-2589.98266601562,-0.62946355342865,-0.064962647855282,-0.771244287490845,0.068830907344818
1708684979,942202879,135.556457519531,-90.250129699707,-2577.00024414062,-0.004972972907126,-0.695084750652313,-0.060277335345745,0.716379165649414,48.5563163757324,61.9510841369629,-2589.40673828125,-0.632083535194397,-0.066608846187592,-0.769125521183014,0.066929936408997
1708684979,992295181,135.559112548828,-90.2644119262695,-2577.00341796875,-0.005188949406147,-0.695047318935394,-0.059862174093723,0.716448724269867,48.2071342468262,62.3078460693359,-2588.89404296875,-0.633932888507843,-0.064724661409855,-0.767840385437012,0.066037468612194
1708684980,42700909,135.563980102539,-90.2440490722656,-2576.95092773438,-0.005427497904748,-0.695056974887848,-0.059669815003872,0.716453731060028,48.0769577026367,62.4260215759277,-2588.56982421875,-0.633585214614868,-0.064068630337715,-0.768121778964996,0.066738091409206
1708684980,92174398,135.564453125,-90.2612533569336,-2576.98388671875,-0.003932332154363,-0.695185542106628,-0.061018660664559,0.71622508764267,47.4654350280762,62.1150245666504,-2588.3916015625,-0.632884502410889,-0.06301061809063,-0.768600940704346,0.068843521177769
1708684980,142727894,135.561981201172,-90.2490234375,-2577.10229492187,-0.004060980863869,-0.694722175598145,-0.061128098517656,0.716664493083954,45.8936309814453,60.766471862793,-2589.03247070312,-0.630996882915497,-0.0640954002738,-0.769601106643677,0.073816351592541
1708684980,192188200,135.569030761719,-90.2503204345703,-2576.986328125,-0.00455287983641,-0.69536966085434,-0.060504645109177,0.716086268424988,43.4730072021484,57.1679573059082,-2591.09692382812,-0.626969933509827,-0.066348366439343,-0.771630465984345,0.084219850599766
1708684980,241887250,135.572341918945,-90.2682800292969,-2577.05419921875,-0.004305875394493,-0.695091366767883,-0.060765530914068,0.716335833072662,43.0525131225586,54.631275177002,-2593.19360351562,-0.624656975269318,-0.069577991962433,-0.772675454616547,0.089079603552818
1708684980,291957348,135.589263916016,-90.2189331054688,-2577.02954101563,-0.005773889366537,-0.695043444633484,-0.059449434280396,0.716482400894165,43.4696044921875,54.1675415039063,-2593.93286132812,-0.621391832828522,-0.072393834590912,-0.774982213973999,0.089632004499436
1708684980,341818017,135.584182739258,-90.2304534912109,-2577.01928710937,-0.005102383438498,-0.695161879062653,-0.060095001012087,0.716318726539612,43.1436882019043,55.9585266113281,-2593.30419921875,-0.621544301509857,-0.071307584643364,-0.775625646114349,0.083682380616665
1708684980,392283990,135.588119506836,-90.2230224609375,-2576.91772460937,-0.004779967945069,-0.695366144180298,-0.060347158461809,0.716101467609406,42.9482917785645,58.5260238647461,-2592.5810546875,-0.621988296508789,-0.070448517799378,-0.776266038417816,0.074690043926239
1708684980,441667237,135.577819824219,-90.2127914428711,-2577.10205078125,-0.004064191132784,-0.694882452487946,-0.06136342510581,0.716488897800446,43.4308776855469,59.9325332641602,-2591.8505859375,-0.622428297996521,-0.06805744767189,-0.776500821113586,0.070694632828236
1708684980,492266675,135.594757080078,-90.2189483642578,-2576.95190429687,-0.003774588229135,-0.69490510225296,-0.061464160680771,0.71645987033844,45.8515701293945,60.0308609008789,-2591.818359375,-0.621444821357727,-0.06830108910799,-0.777191340923309,0.071518510580063
1708684980,541759195,135.585723876953,-90.2156372070312,-2577.02880859375,-0.003956584259868,-0.695125341415405,-0.06131748482585,0.716257870197296,46.7871475219727,59.5061645507812,-2592.06665039062,-0.619813024997711,-0.069792494177818,-0.778197646141052,0.073274739086628
1708684980,592384452,135.582122802734,-90.2454071044922,-2576.88427734375,-0.004845080897212,-0.695456743240356,-0.060260489583016,0.716020345687866,46.9880294799805,58.2331809997559,-2592.65063476562,-0.618539333343506,-0.070025697350502,-0.778796494007111,0.077340126037598
1708684980,642051620,135.560516357422,-90.2560195922852,-2576.95776367187,-0.00331910001114,-0.694887697696686,-0.061805315315724,0.716449737548828,47.2177085876465,56.7339553833008,-2592.7607421875,-0.61906349658966,-0.072406284511089,-0.777750253677368,0.081377193331719
1708684980,692339112,135.538970947266,-90.2634811401367,-2576.93774414063,-0.002853219397366,-0.694756507873535,-0.062310971319676,0.716535151004791,47.3882942199707,55.1744995117187,-2592.42407226562,-0.617416977882385,-0.077143713831902,-0.77839332818985,0.08336041122675
1708684980,741844301,135.531311035156,-90.2850799560547,-2576.97314453125,-0.00319959060289,-0.694444894790649,-0.061858255416155,0.716874837875366,47.2610969543457,53.7029342651367,-2591.31787109375,-0.618995547294617,-0.079384438693524,-0.776327013969421,0.088651292026043
1708684980,792663263,135.500396728516,-90.3441925048828,-2576.783203125,-0.00554697914049,-0.694830656051636,-0.059485588222742,0.716687560081482,47.4208908081055,51.9760665893555,-2590.78955078125,-0.620364308357239,-0.082573816180229,-0.774416387081146,0.09278479963541
1708684980,842329298,135.483459472656,-90.3628845214844,-2576.79443359375,-0.004135744646192,-0.694350242614746,-0.060905523598194,0.717043340206146,47.0696449279785,49.0861663818359,-2591.92700195312,-0.617813110351563,-0.087512664496899,-0.775164067745209,0.098839245736599
1708684980,891204405,135.451461791992,-90.3922119140625,-2576.69213867187,-0.003649208461866,-0.694563865661621,-0.06134320795536,0.716801762580872,45.2895202636719,46.139705657959,-2593.72583007812,-0.614329993724823,-0.091207221150398,-0.776649177074432,0.105337247252464
1708684980,941882737,135.430236816406,-90.4036102294922,-2576.73803710937,-0.003343552816659,-0.694315731525421,-0.061600528657436,0.717021524906158,43.735221862793,43.7913360595703,-2594.7705078125,-0.610180795192719,-0.096496112644672,-0.778665065765381,0.109765961766243
1708684980,991974297,135.419219970703,-90.3988418579102,-2576.7041015625,-0.003193488111719,-0.694307327270508,-0.061797056347132,0.717013478279114,43.6045417785645,42.2590713500977,-2595.06762695313,-0.609221458435059,-0.100231647491455,-0.77855920791626,0.11246507614851
1708684981,42076372,135.426025390625,-90.3834381103516,-2576.76489257812,-0.003579353680834,-0.694397926330566,-0.061387378722429,0.716959059238434,43.586296081543,42.8107452392578,-2594.97314453125,-0.607764780521393,-0.10181287676096,-0.779782295227051,0.110433958470821
1708684981,91790472,135.441253662109,-90.3588180541992,-2576.76708984375,-0.004472346976399,-0.694414854049683,-0.060661680996418,0.716999411582947,43.4610481262207,43.8868865966797,-2595.14233398437,-0.608683526515961,-0.10230477899313,-0.779666841030121,0.105630435049534
1708684981,141915875,135.476348876953,-90.3663635253906,-2576.86865234375,-0.003197540761903,-0.694921433925629,-0.061893198639155,0.716409921646118,43.7695732116699,44.7062568664551,-2596.455078125,-0.60887336730957,-0.100808702409267,-0.78006237745285,0.103021845221519
1708684981,192059563,135.511047363281,-90.3033599853516,-2576.97827148437,-0.003208046546206,-0.694362103939056,-0.061889320611954,0.716952383518219,44.9038963317871,45.5471420288086,-2597.74975585937,-0.609295308589935,-0.100380584597588,-0.780196189880371,0.099884323775768
